address,latitude,longitude,source,area,pincode
"f 88, chandranager so, vadodara, Gujarat - 390019",22.3019332,73.2375025,openstreetmap,,
"319, Ajwa Road, Vadodara, Gujarat - Gujarat 390019",22.3073537,73.1811551,openstreetmap,,
"Hemdeep Society, 14, Vadodara, Gujarat",22.2981589,73.1611143,openstreetmap,,
"113, Phonix Complex, Sayaji gunj, Vadodara, Gujarat - 390001",22.3071955,73.1812301,openstreetmap,,
"101, Old Padra Road, Vadodara, Gujarat - 390007",22.30613,73.1655462,openstreetmap,,
"62, Jetalpur Road, Ahmedabad, Gujarat",22.3073537,73.1811615,openstreetmap,,
"P-51, Samrajya-1, Akota- Munjmahuda, Vadodara, Gujarat - 390020",22.2892704,73.1703061,openstreetmap,,
"1 Geri Compound, Race Course Road, Vadodara, Gujarat",22.3139225,73.1617102,openstreetmap,,
"9/10, Rajmahal road, Vadodara, Gujarat",22.2889715,73.1944002,openstreetmap,,
"104, Shivani Flats First Floor,Behind Bank of India, Shubhanpura, Vadodara, Gujarat - 390023",22.3183867,73.1597648,openstreetmap,,
"504, Ocean complex,opposite vadodara central mall,Genda Circle, vadodara, Gujarat - 390007",22.3178533,73.1690144,openstreetmap,,
"14, Friends Co-op Society, Vadodara, Gujarat - 390007",22.311994,73.1687578,openstreetmap,,
"Inorbit mall, Subhanpura, Vadodara, Gujarat",22.3219443,73.1654796,openstreetmap,,
"Vadodara Central, Genda Cir, Alkapuri, Vadodara, Gujarat, Gujarat",22.3171604,73.1682542,openstreetmap,,
"The New World, Manisha Chowkdi, Vadodara, Gujarat, Gujarat",22.2970337,73.1649712,openstreetmap,,
"Eva Mall Patider, near saraswati complex, Vadodara, Gujarat",22.2727018,73.1904577,openstreetmap,,
"Chikuwadi, Haripura, Old Padra Road, Vadodara, Gujarat",22.3076346,73.1659044,openstreetmap,,
"Jayesh Colony, Fatehgunj, Vadodara, Gujarat",22.3228945,73.1867698,openstreetmap,,
"Sun Buildings, Race Course Road, Vadodara, Gujarat",22.3089875,73.1603544,openstreetmap,,
"Inorbit Mall Vadodara, Subhanpura, Vadodara, Gujarat",22.3223768,73.1655062,openstreetmap,,
"Sai Rutu Manjalpur, Sarawati road, Vadodara, Gujarat",22.2709058,73.1944365,openstreetmap,,
"GIDC Industrial Area, Manjalpur, Vadodara, Gujarat",22.2710488,73.1941976,openstreetmap,,
"Central Mall Genda, Genda Circle, vadodara, Gujarat",22.3173237,73.1699104,openstreetmap,,
"Saraswati Complex, Manjalpur, Vadodara Gujarat, Gujarat",22.2734946,73.1886805,openstreetmap,,
"Inorbt Mall, Alembic Rd, Gorwa, Vadodara, Gujarat",22.3217705,73.1650009,openstreetmap,,
"Raj Castle Building, Race Course Road, Vadodara, Gujarat",22.3158697,73.1615258,openstreetmap,,
"AG Chamber, Narhari Hospital Circle,, Vadodara, Gujarat",22.3190656,73.188303,openstreetmap,,
"Eva Mall, Manjalpur, Vadodara Gujarat, Gujarat",22.2735572,73.1881068,openstreetmap,,
"Goverdhan Apartment, Jay Santhoshi Nagar, Karelibagh, Vadodara, Gujarat",22.323134,73.1973994,openstreetmap,,
"Akashganga Complex, Race Course Rd, Vadodara, Gujarat",22.3121029,73.1649813,openstreetmap,,
"Uma Co-operative Housing Society Limited, indrapuri road, Vadodara, Gujarat",22.3003308,73.230419,openstreetmap,,
"Karelibagh, Karelibaug Main Road, Vadodara, Gujarat",22.3239565,73.1975823,openstreetmap,,
"Subhanpura, High Tension Rd,, Vadodara, Gujarat",22.3213939,73.1549782,openstreetmap,,
"Satyanarayan Society 1, Gorwa, Gujarat Refinery Rd, Vadodara, Gujarat",22.335759,73.1533097,openstreetmap,,
"Fatehgunj, Fatehganj Main Rd, Vadodara, Gujarat",22.3239466,73.1885379,openstreetmap,,
"Tapovan Society, Nizampura Main Rd, Vadodara, Gujarat",22.3344565,73.180105,openstreetmap,,
"Nizampura, New Chhani Rd, Vadodara, Gujarat",22.3288592,73.1825726,openstreetmap,,
"Relief Colony, Panigate Road, Vadodara, Gujarat",22.2990384,73.2197376,openstreetmap,,
"Purushottam Nagar, New VIP Ring Road, Vadodara, Gujarat",22.3174358,73.2279556,openstreetmap,,
"Jay Ranchod Society 3, Chandranagar Society, Ajwa Road, Vadodara, Gujarat",22.3024035,73.2265719,openstreetmap,,
"Nageshwar Society, Harni Rd, Vadodara, Gujarat",22.3134845,73.2116941,openstreetmap,,
"Ghanshyam Nagar Society 2, Manjalpur, Vadodara, Gujarat",22.2716168,73.1907895,openstreetmap,,
"Taksh Complex 2, Kalyan Nagar, Diwalipura, Vasna Road, Vadodara, Gujarat - 390015",22.2949315,73.1575476,openstreetmap,,
"Manjalpur, ShreePalli society, Vadodara, Gujarat",22.2783903,73.1974735,openstreetmap,,
"Amee Society, Alkapuri, Vadodara, Gujarat",22.3137865,73.17431,openstreetmap,,
"Nizampura Pragatinagar, Fatehgunj, Vadodara, Gujarat",22.3259099,73.1911221,openstreetmap,,
"Gokul Nagar, Makarpura Main Rd,, Vadodara, Gujarat",22.2791821,73.2440581,openstreetmap,,
"Bhatia Chawl, Tagore Rd, Vadodara, Gujarat",22.2912468,73.2104928,openstreetmap,,
"Ravaliya Mahudevegon, Airport road SH-6, Vadodara, Gujarat",22.346874,73.2212915,openstreetmap,,
"Buddh Dev Colony, Abbas Tyabji Rd, Jayesh Colony, Fatehgunj, Near Purnima Society, Vadodara, Gujarat - 390008",22.3215284,73.1923844,openstreetmap,,
"Buddha Dev Colony, Abbas Tyabji Road, jayesh Colony, Near Purnima Society, Fatehgunj, Vadodara, Gujarat - 390008",22.3212049,73.1927692,openstreetmap,,
"Sadar Bazar, Abbas Tyabji Rd, Jayesh Colony, Fatehgunj, Vadodara, Gujarat - 390008",22.3228013,73.1896418,openstreetmap,,
"501, Abbas Tyabji Rd, Umang Society, Jayesh Colony, Fatehgunj, Vadodara, Gujarat - 390008",22.3222551,73.1902303,openstreetmap,,
"Fakir ki Jhopadi, Fatehgunj, Vadodara, Gujarat - 390002",22.3234779,73.1890207,openstreetmap,,
"78/3/D, GIDC ESTATE, Makarpura,, Vadodara, Gujarat - 390010",22.2591235,73.1872036,openstreetmap,,
"Grown Floor, Pancham Icon, Saiyed Vasna Road, Near D'Mart, Vadodara, Gujarat - 390012",22.2949189,73.1534212,openstreetmap,,
"80/B Laxmikunj, New Sama Road, vadodara, Gujarat - 390024",22.3404977,73.1973648,openstreetmap,,
"111/112, Rameshwar Nagar, Near Abhinandan Marble, Alvanaka GIDC Road, Manjalpur, vadodara, Gujarat - 390010",22.2652905,73.1930907,openstreetmap,,
"7, Shreeji Apartment, Vadodara, Gujarat - 390011",22.273385,73.1842138,openstreetmap,,
"GF-02, New VIP Ring Road, vadodara, Gujarat - 390025",22.2873692,73.2369245,openstreetmap,,
"Shop - 3, Alemibc Arcade, Alembic City, Alembic Road, Gorwa, Vadodara, Gujarat - 390003",22.3249456,73.1651971,openstreetmap,,
"FF 106-107, Golden Icon, Chakli Circle, Vadodara, Gujarat - 390007",22.3077172,73.1659009,openstreetmap,,
"Ground floor - 9 Indraprasth appartment, Sama Savli Rd, Amit Nagar Circle, Karelibaug, Vadodara, Gujarat - 390018",22.3201432,73.1975617,openstreetmap,,
"205 & 206, SAKAR Complex,, Old Padra Road, Vadodara, Gujarat - 390007",22.3042108,73.1653847,openstreetmap,,
"123, new link road, maharashtra, Gujarat - 400092",22.3220925,73.1654761,openstreetmap,,
"BAPS SWAMINARAYA TEMPLE, VIJAYNAGAR, Susen Tarsali Ring Road, BARODA, Gujarat - 390009",22.2558484,73.2170773,openstreetmap,,
"Vegitable Market Tarsali, Susen Tarsali Ring Road, Baroda, Gujarat - 390009",22.2563634,73.2148169,openstreetmap,,
"vrundavan crossing, New VIP Ring Road, vadodara, Gujarat - 390019",22.3003452,73.2383002,openstreetmap,,
"FF-27, Four Square Near Woodsville Manjalpur, Vadodara, Gujarat - 390011",22.2719692,73.1740558,openstreetmap,,
"203-210, RC Dutt Road, Vadodara, Gujarat - 390007",22.3108103,73.1657471,openstreetmap,,
"7, indrapuri road, vadodara, Gujarat - 390019",22.3008186,73.2345593,openstreetmap,,
"304 ashoka icon, A1 ratnaprabha society near sang cross road, 22, Harni - Warasiya Ring Rd, Harani, Warasiya, Vadodara, Gujarat - 390022",22.3197001,73.2130865,openstreetmap,,
"308, 4th Floor, Patel Ashwamegh Complex, Sayajigunj, Vadodara, Gujarat - 390020",22.3090124,73.1850695,openstreetmap,,
"NO.1, Raopura Road, Vadodara, Gujarat",22.3025891,73.2044829,openstreetmap,,
"1, Royal Acre beside billabong international school, Vadodara, Gujarat - 390010",22.2619509,73.1742556,openstreetmap,,
"Shop no 1&2, First floor, Vinaya hub Brookfield, Tulshi Dham Rd, Manjalpur, Vadodara, Gujarat, Vadodara, Gujarat - 390011",22.2703265,73.1957193,openstreetmap,,
"GF-01, Airport Avenue, Vadodara, GJ - 390022",22.3344695,73.2171915,openstreetmap,,
"GF-05/06, Airport Avenue, Vadodara, GJ - 390022",22.3345386,73.2172204,openstreetmap,,
"GF-03/04, Airport Avenue, Vadodara, GJ - 390022",22.3345152,73.2172086,openstreetmap,,
"77, Sarvoday Society, Nizampura, Vadodara, Gujarat - 390002",22.3335595,73.177445,openstreetmap,,
"B-109, Jyotipark Society, Sama, Vadodara, Gujarat - 390024",22.3384292,73.1908218,openstreetmap,,
"86, Urmi Society, vadodara, Gujarat - 290007",22.3049288,73.1738873,openstreetmap,,
"13 A, Sanmati Society Access Road, Vadodara, Gujarat - 390020",22.2957266,73.1753534,openstreetmap,,
"Matrushaily Apartment, Haribhakti Extension Colony, Vadodara, Gujarat - 390007",22.3055485,73.1639036,openstreetmap,,
"kolakhadi, Sant Kabir Road, vadodara, Gujarat - 390019",22.2975736,73.2099329,openstreetmap,,
"A-1, vraj vatika socity, vadodara, Gujarat - 390019",22.2978623,73.2344025,openstreetmap,,
"1-9, Natraj Society Nizampura, Vadodara, Gujarat - 390002",22.333948,73.1766693,openstreetmap,,
"20, Aurobindo Ghosh Rd, Pratapgunj, Vadodara, Gujarat - 390002",22.3200273,73.177599,openstreetmap,,
"Lalbaug, Manjalpur, Varodara, Gujarat - 390004",22.2819629,73.2002028,openstreetmap,,
"4, Indulal Yagnik Rd, Kedar Park Society, GIDC Industrial Area, Majalpur, Vadodara, Gujarat - 390009",22.2681793,73.200994,openstreetmap,,
"304, Privilege Avenue, Dr. Vikram Sarabhai campus, Vadodara, Gujarat, Gujarat - 390007",22.3175363,73.166643,openstreetmap,,
"B21, Paragraj Society Harni Warasia Ring Road, Vadodara, Gujarat - 390006",22.3155704,73.2247914,openstreetmap,,
"73, East Avenue, Vadodara, Gujarat",22.3194691,73.1687352,openstreetmap,,
"C-8, Bapod char Rasta, Vadodara, Gujarat - 390019",22.2993463,73.2414189,openstreetmap,,
"17, Makarpura Road, Vadodara, Gujarat",22.2516056,73.1995716,openstreetmap,,
"Varniraj PALACE, dabhoi crossing, Vadodara, Gujarat",22.2762865,73.2421757,openstreetmap,,
"706/707 (Tower 1A), 73 East Avenue, Sarabhai Campus, Nr. Genda Circle, Vadodara, Gujarat",22.3194611,73.1692494,openstreetmap,,
"1, Royal Acres beside billabong international school, Vadodara, Gujarat - 390010",22.261776,73.1741246,openstreetmap,,
"Alkapuri, RC Dutt Road, Vadodara, Gujarat",22.3101967,73.1687372,openstreetmap,,
"Metro Hospital And Research Institute, Vadodara, Gujarat",22.33499,73.2089837,openstreetmap_poi,,
"Mental Hospital, Vadodara, Gujarat",22.3176736,73.1989415,openstreetmap_poi,,
"Sayaji Park Busstop, Vadodara, Gujarat",22.31432,73.2428234,openstreetmap_poi,,
"Unnamed toilets, Vadodara, Gujarat",22.327542,73.210155,openstreetmap_poi,,
"Makarpura Road Police Station, Vadodara, Gujarat",22.2707302,73.2032808,openstreetmap_poi,,
"Canara Coffee House, Raopura Road, Vadodara, Gujarat",22.2995039,73.2024685,openstreetmap_poi,,
"Hot Stuff, New Sama Road, Vadodara, Gujarat",22.3365654,73.1891104,openstreetmap_poi,,
"Navarachana School, Sama Road, Vadodara, Gujarat",22.337347,73.1908028,openstreetmap_poi,,
"D'Mart, Vadodara, Gujarat",22.294938,73.1530793,openstreetmap_poi,,
"HP, Vasna Road, Vadodara, Gujarat",22.2949821,73.1525701,openstreetmap_poi,,
"Dada Alay, Vadodara, Gujarat",22.3046807,73.2049371,openstreetmap_poi,,
"Bank of Baroda, Bhutadi Zampa, Vadodara, Gujarat",22.3064507,73.2041971,openstreetmap_poi,,
"Unnamed atm, Vadodara, Gujarat",22.3040821,73.2054186,openstreetmap_poi,,
"Sai Baba, Vadodara, Gujarat",22.3035443,73.2043115,openstreetmap_poi,,
"Maharani Kanya Vidyalaya, NORTH SURSAGAR, Vadodara, Gujarat",22.3009434,73.2017984,openstreetmap_poi,,
"Maharani English Medium School, Near Canara Cafe House, Near Sursagar, Dandia bazaar, Vadodara, Gujarat",22.3005868,73.2013813,openstreetmap_poi,,
"Unnamed fire_station, Vadodara, Gujarat",22.3001135,73.2016377,openstreetmap_poi,,
"Chatkazz Vadapav, Opp. Shiddi Vinayak Madir, Dandia Bazar, Vadodara, Gujarat",22.3002336,73.1989767,openstreetmap_poi,,
"Shree Siddhivinayak Temple, Vadodara, Gujarat",22.2999403,73.1994009,openstreetmap_poi,,
"Bumia Butter Suppliers Dairy, Vadodara, Gujarat",22.3002386,73.199894,openstreetmap_poi,,
"Sairam Chemist & Druggist, Opposite Sardar Bhavan Lane, Raopura, Vadodara, Gujarat",22.3036205,73.2046619,openstreetmap_poi,,
"Bhumi Nursing Home & Echo Doppler Clinic, Opp. Sardar Bhavan Lane, Jubilee Baug, Raopura, Vadodara, Gujarat",22.3036505,73.2047701,openstreetmap_poi,,
"Govardhan, Vadodara, Gujarat",22.3051278,73.2038207,openstreetmap_poi,,
"Vegetable Market, Vadodara, Gujarat",22.3051663,73.2019863,openstreetmap_poi,,
"State Bank of India, Vadodara, Gujarat",22.3041662,73.2012585,openstreetmap_poi,,
"Vadodara Head Post Office, Surya Narayan Baug Road, Raopura, Vadodara, Gujarat",22.3036587,73.1975816,openstreetmap_poi,,
"Suryanarayan Temple, Vadodara, Gujarat",22.3034353,73.1970121,openstreetmap_poi,,
"Vodafone Store, Vadodara, Gujarat",22.3034617,73.1948627,openstreetmap_poi,,
"State Record Room, Vadodara, Gujarat",22.3024042,73.1943188,openstreetmap_poi,,
"Land Record Office, Vadodara, Gujarat",22.3027955,73.1943144,openstreetmap_poi,,
"Registrar Office, Vadodara, Gujarat",22.3032072,73.1947726,openstreetmap_poi,,
"Vadodara Irrigation Circle, Vadodara, Gujarat",22.3034497,73.1944207,openstreetmap_poi,,
"Coco Chai, Vadodara, Gujarat",22.2957077,73.1967093,openstreetmap_poi,,
"FTE Canteen, Vadodara, Gujarat",22.2974074,73.1972376,openstreetmap_poi,,
"Sanjay Drawing Store, Vadodara, Gujarat",22.298692,73.1960791,openstreetmap_poi,,
"Ashish, Vadodara, Gujarat",22.2988719,73.1979786,openstreetmap_poi,,
"Khane Rafaiya Masjid, Vadodara, Gujarat",22.2994661,73.1959004,openstreetmap_poi,,
"Sachin Tailor, Vadodara, Gujarat",22.3046438,73.2041812,openstreetmap_poi,,
"Unnamed place_of_worship, Vadodara, Gujarat",22.3051002,73.2040287,openstreetmap_poi,,
"Unnamed cafe, Vadodara, Gujarat",22.309703,73.1739473,openstreetmap_poi,,
"HDFC Bank, Vadodara, Gujarat",22.2930785,73.1672324,openstreetmap_poi,,
"Saumyaa Automation, Phonix Complex, Sayaji gunj, Vadodara, Gujarat",22.3071955,73.1812301,openstreetmap_poi,,
"Delhi Express, Old Padra Road, Vadodara, Gujarat",22.30613,73.1655462,openstreetmap_poi,,
"Unnamed company, Vadodara, Gujarat",22.2711002,73.1784193,openstreetmap_poi,,
"Unnamed fuel, Vadodara, Gujarat",22.3206224,73.2039355,openstreetmap_poi,,
"Cricket Pitch, Vadodara, Gujarat",22.3217261,73.2037548,openstreetmap_poi,,
"Nirmal Hospital, Samrajya-1, Akota- Munjmahuda, Vadodara, Gujarat",22.2892704,73.1703061,openstreetmap_poi,,
"Goodies Cafeteria, Vadodara, Gujarat",22.3102246,73.1584287,openstreetmap_poi,,
"Lilleria, Vadodara, Gujarat",22.3105074,73.1584019,openstreetmap_poi,,
"Atmajyoti Ashram, Vadodara, Gujarat",22.3160942,73.1558028,openstreetmap_poi,,
"Frigtemp, Vadodara, Gujarat",22.3249248,73.1891946,openstreetmap_poi,,
"Gujarat Pollution Control Board, RO, Race Course Road, Vadodara, Gujarat",22.3139225,73.1617102,openstreetmap_poi,,
"Cup of chemistry, Vadodara, Gujarat",22.3098085,73.1590719,openstreetmap_poi,,
"Palav shree ani Madayali , Vadodara, Gujarat",22.2998441,73.2006884,openstreetmap_poi,,
"Nital skin clinic , purusharth avenue, Vadodara, Gujarat",22.2931898,73.1678198,openstreetmap_poi,,
"Airforce station, Vadodara Bypass, Vadodara, Gujarat",22.3406433,73.2446914,openstreetmap_poi,,
"Unnamed fuel, New VIP Ring Road, Vadodara, Gujarat",22.2807547,73.2226144,openstreetmap_poi,,
"Agni Fiber Boards, Vadodara Bypass, Vadodara, Gujarat",22.250785,73.193864,openstreetmap_poi,,
"k hair salon, Vadodara, Gujarat",22.3496758,73.199852,openstreetmap_poi,,
"shri padma, Vadodara, Gujarat",22.3498793,73.2000949,openstreetmap_poi,,
"Inox, Vadodara, Gujarat",22.3230512,73.1872145,openstreetmap_poi,,
"Family Restaurant, Vadodara, Gujarat",22.3496463,73.2009242,openstreetmap_poi,,
"CNG Petrol pump, Vadodara, Gujarat",22.3450417,73.2024833,openstreetmap_poi,,
"Pizza MÄ“o, Sayajigunj, Vadodara, Gujarat",22.3085946,73.1841521,openstreetmap_poi,,
"Mahashagar Travels, Rajmahal road, Vadodara, Gujarat",22.2889715,73.1944002,openstreetmap_poi,,
"Kalyan, Vadodara, Gujarat",22.3086925,73.184278,openstreetmap_poi,,
"Mahasagar Travels Ltd, Vadodara, Gujarat",22.2889084,73.1944504,openstreetmap_poi,,
"Dairy Den, Vadodara, Gujarat",22.3088994,73.1843787,openstreetmap_poi,,
"Jivan bharti school, Vadodara, Gujarat",22.3162441,73.1976318,openstreetmap_poi,,
"Kuber Bhuvan, Kothi Road, Vadodara, Gujarat",22.3025898,73.1954821,openstreetmap_poi,,
"Reliance Fresh, Vadodara, Gujarat",22.3043297,73.2391254,openstreetmap_poi,,
"Tecunique Software services, Ocean complex,opposite vadodara central mall,Genda Circle, Vadodara, Gujarat",22.3178533,73.1690144,openstreetmap_poi,,
"Subway, Genda circle, Vadodara, Gujarat",22.3172925,73.1685235,openstreetmap_poi,,
"Cng Vadodara, Race Course Road, Vadodara, Gujarat",22.3152894,73.1648741,openstreetmap_poi,,
"Cng adani, Race Course Road, Vadodara, Gujarat",22.3153114,73.164572,openstreetmap_poi,,
"The Gateway Hotel, Vadodara, Gujarat",22.2934916,73.1743197,openstreetmap_poi,,
"Unnamed water_point, Vadodara, Gujarat",22.3058043,73.1862066,openstreetmap_poi,,
"Giriraj, Vadodara, Gujarat",22.2859258,73.2475187,openstreetmap_poi,,
"Smt Hansa Mehta Library, Vadodara, Gujarat",22.3107247,73.1852914,openstreetmap_poi,,
"Computer Application Department, Vadodara, Gujarat",22.3120204,73.1854786,openstreetmap_poi,,
"Statistics Department, Vadodara, Gujarat",22.3116591,73.1854842,openstreetmap_poi,,
"Mathematics Department, Vadodara, Gujarat",22.3112947,73.1854835,openstreetmap_poi,,
"Geology Department, Vadodara, Gujarat",22.3116771,73.1850629,openstreetmap_poi,,
"Physics Department, Vadodara, Gujarat",22.3113615,73.184634,openstreetmap_poi,,
"Chemistry Department, Vadodara, Gujarat",22.310906,73.1847886,openstreetmap_poi,,
"Environmental Studies Department, Vadodara, Gujarat",22.3117645,73.1845485,openstreetmap_poi,,
"Cinemarc Vihar, Vadodara, Gujarat",22.2893997,73.2095701,openstreetmap_poi,,
"Cinepolis, Vadodara, Gujarat",22.3225001,73.1659132,openstreetmap_poi,,
"Medical Care Centre Trust, Shri Jalaram Blood Bank, Vadodara, Vadodara, Gujarat",22.315035,73.1951679,openstreetmap_poi,,
"Indu Blood Bank, Vadodara, Vadodara, Gujarat",22.3040969,73.1935506,openstreetmap_poi,,
"S. S. G. Hospital's Blood Bank, Vadodara, Vadodara, Gujarat",22.3063178,73.1909287,openstreetmap_poi,,
"Suraktam Blood Bank, Vadodara, Vadodara, Gujarat",22.3078849,73.1862053,openstreetmap_poi,,
"Bhailal Amin General Hospital Blood Bank, Vadodara, Gujarat",22.3254079,73.1631383,openstreetmap_poi,,
"Jamnabai Blood Bank, Vadodara, Gujarat",22.2997987,73.2121597,openstreetmap_poi,,
"Alpana Clinic, Vadodara, Gujarat",22.2569913,73.2066008,openstreetmap_poi,,
"As Siddiq Surgical Hospital, Vadodara, Gujarat",22.2994608,73.2213646,openstreetmap_poi,,
"Dwarkesh Hospital, Vadodara, Gujarat",22.3248646,73.1978278,openstreetmap_poi,,
"Harshal Generaland Surgical Hospital, Vadodara, Gujarat",22.3004297,73.2231125,openstreetmap_poi,,
"Shree Vallabhacharya Mahaprabhuji Hospital, Vadodara, Gujarat",22.2933762,73.2309942,openstreetmap_poi,,
"Bhailal Amin General Hospital, Vadodara, Gujarat",22.3253843,73.1631088,openstreetmap_poi,,
"Shree Viththalesh Hospital, Vadodara, Gujarat",22.26855,73.1909884,openstreetmap_poi,,
"Rushabh Nursing Home and Clinic, Vadodara, Gujarat",22.2748253,73.1951036,openstreetmap_poi,,
"Brij Psychiatric Hospital, Vadodara, Gujarat",22.3098142,73.1873332,openstreetmap_poi,,
"Priyal Clinic, Vadodara, Gujarat",22.2998124,73.2212457,openstreetmap_poi,,
"Shree Vraj Hospital, Vadodara, Gujarat",22.2951426,73.1640472,openstreetmap_poi,,
"Kaka Hospital, Vadodara, Vadodara, Gujarat",22.2998869,73.2330582,openstreetmap_poi,,
"Sanjivani Hospital and Laprascopy Center, Vadodara, Gujarat",22.2975095,73.171775,openstreetmap_poi,,
"BM Parikh Foundation Trust, Vadodara, Gujarat",22.3006735,73.2092294,openstreetmap_poi,,
"Navrang Hospital, Vadodara, Gujarat",22.3268271,73.2061046,openstreetmap_poi,,
"Dr. Bhavesh Patel's Hospital, Vadodara, Gujarat",22.3396366,73.1778905,openstreetmap_poi,,
"Desai Urological and Maternity Hospital, Vadodara, Gujarat",22.3341735,73.1811172,openstreetmap_poi,,
"Uro - Care Hospital - Vadodara, Vadodara, Gujarat",22.3037135,73.1538525,openstreetmap_poi,,
"Chiplonkar Eye Hospital, Vadodara, Gujarat",22.3003143,73.1974619,openstreetmap_poi,,
"Dr. Handas Eye Hospital, Vadodara, Gujarat",22.2683086,73.2019834,openstreetmap_poi,,
"Sant Hospital, Vadodara, Gujarat",22.3016761,73.1984147,openstreetmap_poi,,
"Aditya Surgical Hospital, Vadodara, Gujarat",22.2919691,73.2106014,openstreetmap_poi,,
"Acharya Nursing Home and Icu, Vadodara, Gujarat",22.3261721,73.155714,openstreetmap_poi,,
"Rudraksha Medical and Eye Care Centre, Vadodara, Gujarat",22.3430081,73.1757715,openstreetmap_poi,,
"Nisarg Orthopaedic and Maternity Hospital, Vadodara, Gujarat",22.3182731,73.2204612,openstreetmap_poi,,
"Ankur Children Hospital, Vihar Road, Vadodara, Gujarat",22.3215968,73.2411504,openstreetmap_poi,,
"Vraj Hospital, Vadodara, Gujarat",22.3472341,73.1745639,openstreetmap_poi,,
"Kala Laser and Cosmetic Surgery Centre, Vadodara, Gujarat",22.3132981,73.1766218,openstreetmap_poi,,
"Om Multi Speciality Hospital, Vadodara, Gujarat",22.3231785,73.1504716,openstreetmap_poi,,
"Neurosurgical Hospital, Vadodara, Gujarat",22.302478,73.1998304,openstreetmap_poi,,
"Neurology Hospital, Vadodara, Gujarat",22.313471,73.1587912,openstreetmap_poi,,
"Kamubala Poly Clinic, Vadodara, Gujarat",22.3439198,73.1759928,openstreetmap_poi,,
"Spandan Multi Speciality Hospital, Vadodara, Gujarat",22.2772602,73.203126,openstreetmap_poi,,
"Devpushp Meternity and Lapruscopy Hospital, Vadodara, Gujarat",22.2694876,73.1976423,openstreetmap_poi,,
"Shivam Eye Hospital, Vadodara, Vadodara, Gujarat",22.2775159,73.1978354,openstreetmap_poi,,
"Shree Vraj Hospital and I.C.U, Vadodara, Gujarat",22.2724593,73.1870703,openstreetmap_poi,,
"Rishabh Nursing Home, Vadodara, Gujarat",22.3211998,73.1588729,openstreetmap_poi,,
"Chintu Children Hospital, Vadodara, Gujarat",22.2966006,73.1719883,openstreetmap_poi,,
"Shri Narhari Arogya Kendra Hospital, Vadodara, Gujarat",22.3182458,73.188335,openstreetmap_poi,,
"Kamat Kidney and Eye Hospital - Vadodara, Vadodara, Gujarat",22.2961439,73.1678402,openstreetmap_poi,,
"Shrey Nursing Home and Iccu, Vadodara, Gujarat",22.2972923,73.2010312,openstreetmap_poi,,
"Palash Hospital, Vadodara, Gujarat",22.2514256,73.2021077,openstreetmap_poi,,
"Aum Sai Retina Care Centre, Vadodara, Gujarat",22.314571,73.1711031,openstreetmap_poi,,
"Aditya Oral And Maxillofacial Clinic, Vadodara, Gujarat",22.3002988,73.199544,openstreetmap_poi,,
"Prutha Maternity Nursing Home, Vadodara, Gujarat",22.3204963,73.1972091,openstreetmap_poi,,
"Dr. Girish K. Zinzuvadia, Vadodara, Gujarat",22.3040081,73.2007161,openstreetmap_poi,,
"Uma Laparoscopy Hospital, Vadodara, Gujarat",22.3015719,73.2304068,openstreetmap_poi,,
"Swar Clinic, Vadodara, Gujarat",22.3036229,73.2002735,openstreetmap_poi,,
"Utkarsh Clinic, Vadodara, Gujarat",22.326476,73.1555665,openstreetmap_poi,,
"Gayatri Maternity Hospital(Only For Apollo Tyre), Vadodara, Gujarat",22.3009602,73.2348619,openstreetmap_poi,,
"Gorwa Hospital, Vadodara, Gujarat",22.3338708,73.1558843,openstreetmap_poi,,
"Navjivan Hospital, Vadodara, Vadodara, Gujarat",22.3123949,73.2241385,openstreetmap_poi,,
"City Heart Centre, Vadodara, Gujarat",22.3015396,73.1992335,openstreetmap_poi,,
"Sankalp Eye Hospital and Retina Centre, Vadodara, Gujarat",22.3081256,73.16585,openstreetmap_poi,,
"Netradeep Hospital, Vadodara, Gujarat",22.2910521,73.1635849,openstreetmap_poi,,
"Desai Eye Institute and Research Centre, Vadodara, Gujarat",22.322088,73.1594714,openstreetmap_poi,,
"Anjali Memorial Hospital, Vadodara, Gujarat",22.3228796,73.187985,openstreetmap_poi,,
"Shreenath Clinic, Vadodara, Gujarat",22.3022255,73.1971614,openstreetmap_poi,,
"Sankalp Hospital, Vadodara, Vadodara, Gujarat",22.3011709,73.1985165,openstreetmap_poi,,
"Dr Kalpit Baxi Orthopaedic Hospital, Vadodara, Gujarat",22.3016359,73.198415,openstreetmap_poi,,
"Sanjivani Hospital, Vadodara, Vadodara, Gujarat",22.2706017,73.2017379,openstreetmap_poi,,
"Rahul Children Hospital, Vadodara, Gujarat",22.3231078,73.1580971,openstreetmap_poi,,
"Anantshree Hospital, Vadodara, Gujarat",22.2997336,73.2391461,openstreetmap_poi,,
"Sarveshwar Hospital, Vadodara, Gujarat",22.3074035,73.2324895,openstreetmap_poi,,
"Viroc Vadodara Institute For Reconstructive Orthopaedic Care, Vadodara, Gujarat",22.31288,73.2022248,openstreetmap_poi,,
"Anya Ent Hospital, Vadodara, Gujarat",22.3190324,73.1603475,openstreetmap_poi,,
"Dr. Vasant M. Patel, Vadodara, Gujarat",22.2956706,73.1998256,openstreetmap_poi,,
"Balvantray Mehta Nisargopchar Arogya Bhavan, Vadodara, Gujarat",22.3227822,73.2102178,openstreetmap_poi,,
"Dr. Kumars Clinic, Vadodara, Gujarat",22.3341915,73.1807578,openstreetmap_poi,,
"Vadilal Eye Hospital, Vadodara, Gujarat",22.2994966,73.1720252,openstreetmap_poi,,
"Ami Surgical Hospital, Vadodara, Gujarat",22.3084506,73.1768015,openstreetmap_poi,,
"Dr Nutan Shahs Eye Hospital and Advanced Phaco Centre, Vadodara, Gujarat",22.3355132,73.1797117,openstreetmap_poi,,
"Dr. Vipul J. Mistry, Vadodara, Gujarat",22.3209126,73.1590473,openstreetmap_poi,,
"Kalpana Hospital, Vadodara, Gujarat",22.3311566,73.1807873,openstreetmap_poi,,
"Baroda Heart Institute And Research Centre, Vadodara, Gujarat",22.3066429,73.1651379,openstreetmap_poi,,
"Batra Hospital, Vadodara, Gujarat",22.3144767,73.2219645,openstreetmap_poi,,
"Sigma Hospital, Vadodara, Gujarat",22.2702937,73.1972077,openstreetmap_poi,,
"Siddharth Hospital, Vadodara, Vadodara, Gujarat",22.3195243,73.1891739,openstreetmap_poi,,
"Dhanvantri E.N.T Hospital, Vadodara, Gujarat",22.2795461,73.2306898,openstreetmap_poi,,
"Vardhman Ent Hospital, Vadodara, Gujarat",22.2999166,73.1700242,openstreetmap_poi,,
"Maa Hospital, Vadodara, Vadodara, Gujarat",22.3166894,73.2467991,openstreetmap_poi,,
"Mangalam Orthopaedic Hospital, Vadodara, Gujarat",22.2795561,73.2311109,openstreetmap_poi,,
"Krishnashray Hospital and Icu, Vadodara, Gujarat",22.302415,73.1997766,openstreetmap_poi,,
"Ankur Children Hospital, Vadodara, Gujarat",22.3437672,73.1762624,openstreetmap_poi,,
"Anusha Hospital, Vadodara, Gujarat",22.3105772,73.1570014,openstreetmap_poi,,
"Amit Orthopaedic Hosptial, Vadodara, Gujarat",22.3441666,73.1759633,openstreetmap_poi,,
"Govind Clinic and Retinal Laser Centre, Vadodara, Gujarat",22.3041527,73.199027,openstreetmap_poi,,
"Hari Surgical Hospital, Vadodara, Gujarat",22.3197352,73.2036417,openstreetmap_poi,,
"Dr. Rupa Jain Eye Clinic, Vadodara, Gujarat",22.3094054,73.1737284,openstreetmap_poi,,
"Balaji Hospital, Vadodara, Gujarat",22.3180659,73.1628017,openstreetmap_poi,,
"Amruta Hospital, Vadodara, Gujarat",22.2923835,73.1647383,openstreetmap_poi,,
"Toshi Dental Clinic, Vadodara, Gujarat",22.3037408,73.2043679,openstreetmap_poi,,
"Anuj Children Hospital, Vadodara, Gujarat",22.3133651,73.2227571,openstreetmap_poi,,
"Shree Shubham Surgical and Eye Hospital, Vadodara, Gujarat",22.3211675,73.158934,openstreetmap_poi,,
"Ashutosh Hospital, Vadodara, Gujarat",22.2826982,73.1658165,openstreetmap_poi,,
"Saurabh Clinic, Vadodara, Gujarat",22.3396718,73.1925716,openstreetmap_poi,,
"Misha Maternity Home, Vadodara, Gujarat",22.3213241,73.1886659,openstreetmap_poi,,
"Chintamani Orthopaedic Hospital, Vadodara, Gujarat",22.3029553,73.2022174,openstreetmap_poi,,
"Shree Vallabh Hospital, Vadodara, Gujarat",22.2936889,73.2379626,openstreetmap_poi,,
"Abhishek Hospital, Vadodara, Vadodara, Gujarat",22.3247553,73.1571369,openstreetmap_poi,,
"Shirali Hospital, Vadodara, Gujarat",22.3108216,73.1563939,openstreetmap_poi,,
"Krishna Ent and Skin Hospital, Vadodara, Gujarat",22.3001785,73.1974411,openstreetmap_poi,,
"Navjeevan Nursing Home, Vadodara, Vadodara, Gujarat",22.3059952,73.1733763,openstreetmap_poi,,
"Raghuvir Eye Care Hospital, Vadodara, Gujarat",22.3269422,73.2066899,openstreetmap_poi,,
"Vandana Hospital, Vadodara, Vadodara, Gujarat",22.3115748,73.1559969,openstreetmap_poi,,
"Chandan Hospital And I C U - Vadodara, Vadodara, Gujarat",22.3020223,73.1998833,openstreetmap_poi,,
"Aaram Nursing Home, Baroda, Vadodara, Gujarat",22.3024286,73.2021095,openstreetmap_poi,,
"Vins Hospital Pvt Ltd / Vadodara Institute Of Neurologyl Sciences, Vadodara, Gujarat",22.3050746,73.1738799,openstreetmap_poi,,
"Dr. Dandekar Eye Clinic And Surgery Centre, Vadodara, Gujarat",22.2986957,73.1999483,openstreetmap_poi,,
"Kalawati Hospital, Vadodara, Vadodara, Gujarat",22.3117875,73.2239205,openstreetmap_poi,,
"Shilpa Children Hospital, Vadodara, Gujarat",22.3116393,73.1534006,openstreetmap_poi,,
"Ganga Jamna Hospital, Vadodara, Gujarat",22.3203797,73.159457,openstreetmap_poi,,
"Aadhar Hospital, Vadodara, Vadodara, Gujarat",22.3072955,73.1729545,openstreetmap_poi,,
"Paavan Hospital, Vadodara, Gujarat",22.3254265,73.1568566,openstreetmap_poi,,
"Sunderam Hospital, Vadodara, Gujarat",22.3093557,73.1689889,openstreetmap_poi,,
"Makarpura Hospital, Vadodara, Gujarat",22.2512997,73.2003795,openstreetmap_poi,,
"Parth Surgical Hospital, Vadodara, Vadodara, Gujarat",22.3033288,73.2290389,openstreetmap_poi,,
"Sanjiv Hospital, Vadodara, Gujarat",22.3124556,73.1811655,openstreetmap_poi,,
"Rituma Clinic, Vadodara, Gujarat",22.3093762,73.1666668,openstreetmap_poi,,
"Dipti Eye Hospital, Vadodara, Gujarat",22.3333864,73.1799041,openstreetmap_poi,,
"Ananyaa Children Hospital, Vadodara, Gujarat",22.3087161,73.1760035,openstreetmap_poi,,
"Neeta Maternity and Gynaec Hospital, Vadodara, Gujarat",22.311045,73.2243933,openstreetmap_poi,,
"Adarsh General Hospital, Vadodara, Gujarat",22.3087881,73.1611575,openstreetmap_poi,,
"Samvedan Multispeciality Hospital, Vadodara, Gujarat",22.285947,73.2338977,openstreetmap_poi,,
"Siddhi Surgical Hospital, Vadodara, Gujarat",22.3022444,73.202666,openstreetmap_poi,,
"Manav Hospital, Vadodara, Vadodara, Gujarat",22.3162223,73.1555772,openstreetmap_poi,,
"Neel Surgical Hospital For Children, Vadodara, Vadodara, Gujarat",22.2946518,73.1715699,openstreetmap_poi,,
"Eye-Q Super Speciality Eye Hospitals, BPC Road, Vadodara, Gujarat",22.323645,73.1898022,openstreetmap_poi,,
"Kothari Hospital, Vadodara, Vadodara, Gujarat",22.2953554,73.1586818,openstreetmap_poi,,
"Pooja Nursing Home, Vadodara, Vadodara, Gujarat",22.2920088,73.1950727,openstreetmap_poi,,
"Shruti Ent Clinic, Vadodara, Gujarat",22.3189195,73.2118191,openstreetmap_poi,,
"I Care Hospital and Phaco Center, Vadodara, Gujarat",22.3102559,73.1582554,openstreetmap_poi,,
"Shanti Hospital, Vadodara, Vadodara, Gujarat",22.3019056,73.2341921,openstreetmap_poi,,
"Vrund Clinic, Vadodara, Gujarat",22.3301493,73.2060577,openstreetmap_poi,,
"Aashaa The Right Direction Hospital, Vadodara, Gujarat",22.3021823,73.199729,openstreetmap_poi,,
"Uday Clinic, Vadodara, Gujarat",22.3011599,73.2271251,openstreetmap_poi,,
"Shree Vallabh Nursing Home, Vadodara, Gujarat",22.299403,73.2297724,openstreetmap_poi,,
"Dr Thakorbhai V Patel Eye Institute and Sheth M L Vaduwala Hospital, Vadodara, Gujarat",22.3067384,73.1958707,openstreetmap_poi,,
"Baba Advanced Orthopaedic Hospital, Vadodara, Gujarat",22.3203189,73.1971675,openstreetmap_poi,,
"Vision Plus Lasik Laser Center, Vadodara, Gujarat",22.3097621,73.1708832,openstreetmap_poi,,
"Siddhi Vinayak Hospital, Vadodara, Vadodara, Gujarat",22.2551673,73.2110775,openstreetmap_poi,,
"Aastha Children Icu, Vadodara, Gujarat",22.3319853,73.1809884,openstreetmap_poi,,
"Shaishav Nursing Home, Vadodara, Gujarat",22.2991101,73.2210593,openstreetmap_poi,,
"Baroda Life Line Hospital, Vadodara, Gujarat",22.2824016,73.2312047,openstreetmap_poi,,
"Baroda Neurosurgical and Children and Multispeciality Hospital, Vadodara, Gujarat",22.2967414,73.1720151,openstreetmap_poi,,
"Ganga Clinic, Vadodara, Gujarat",22.3025471,73.1975008,openstreetmap_poi,,
"Shree Maruti Surgical and Trauma Hospital, Vadodara, Gujarat",22.3044008,73.1997719,openstreetmap_poi,,
"Deep Pain Management Centre Hospital, Vadodara, Gujarat",22.3200373,73.2009025,openstreetmap_poi,,
"Aayush Children Hospital, Vadodara, Gujarat",22.326976,73.2067792,openstreetmap_poi,,
"Amish Plastic Surgical Hospital, Vadodara, Gujarat",22.2985859,73.1744036,openstreetmap_poi,,
"Indrapuri Hospital, Vadodara, Gujarat",22.3005265,73.2303109,openstreetmap_poi,,
"Shrey Children Hospital Neonatal Care, Vadodara, Gujarat",22.3232294,73.1580354,openstreetmap_poi,,
"Singhania Dental and Ent Care, Vadodara, Gujarat",22.2564824,73.2043719,openstreetmap_poi,,
"Ramkrishna Paramhansa Hospital,Kalali, Vadodara, Gujarat",22.2569956,73.1632577,openstreetmap_poi,,
"Saujanya Fracture and Orthopaedic Hospital, Vadodara, Gujarat",22.2991889,73.1984375,openstreetmap_poi,,
"Shree Maharani Shntidevi Hospital, Vadodara, Gujarat",22.2781506,73.1826876,openstreetmap_poi,,
"Bina Clinic Eye Care Centre, Vadodara, Gujarat",22.3094916,73.1764179,openstreetmap_poi,,
"Citizen Hospital, Vadodara, Gujarat",22.3050746,73.2390878,openstreetmap_poi,,
"Maitri Hospital, Vadodara, Vadodara, Gujarat",22.3072608,73.1771931,openstreetmap_poi,,
"Vakade Centre For Dental Excellence, Vadodara, Gujarat",22.3036378,73.1931321,openstreetmap_poi,,
"Shreejala Hospital, Vadodara, Gujarat",22.301516,73.2004975,openstreetmap_poi,,
"Bittu Hospital, Vadodara, Gujarat",22.2980281,73.2296115,openstreetmap_poi,,
"Zainee Nursing Home, Vadodara, Gujarat",22.2991784,73.2214509,openstreetmap_poi,,
"City Plaza Eye Clinic, Vadodara, Gujarat",22.3032283,73.2009548,openstreetmap_poi,,
"Shreeji Hospital, Sangam, Vadodara, Gujarat",22.3202792,73.2125822,openstreetmap_poi,,
"Centre For Sight, Allkapuri 2, Vadodara, Gujarat",22.3180535,73.170619,openstreetmap_poi,,
"Siddhi Clinic, Vadodara, Gujarat",22.3107596,73.1538968,openstreetmap_poi,,
"Premier Kidney Care Pvt.Ltd., Vadodara, Gujarat",22.3008919,73.1745431,openstreetmap_poi,,
"Baroda Children Eye Care And Squint Clinic, Vadodara, Gujarat",22.3107832,73.1662685,openstreetmap_poi,,
"Unity Hospital, Vadodara, Vadodara, Gujarat",22.312045,73.1524202,openstreetmap_poi,,
"Madhuram Hospital, Vadodara, Vadodara, Gujarat",22.3128601,73.2231742,openstreetmap_poi,,
"Sanjiv Nursing Home, Vadodara, Gujarat",22.2929866,73.1694871,openstreetmap_poi,,
"Shree Krushna Children and Maternity Hospital, Vadodara, Gujarat",22.2893669,73.2358456,openstreetmap_poi,,
"Anand Medical Nursing Home, Vadodara, Gujarat",22.3015185,73.2298462,openstreetmap_poi,,
"Shree Mahaveer Hospital, Vadodara, Gujarat",22.294063,73.2278111,openstreetmap_poi,,
"Madhuram Hospital, Makarpura, Vadodara, Gujarat",22.2577863,73.1987701,openstreetmap_poi,,
"Anand Multi Speciality Hospital, Vadodara, Gujarat",22.3355498,73.1531914,openstreetmap_poi,,
"Shushrut Hospital, Vadodara, Gujarat",22.3273183,73.2100086,openstreetmap_poi,,
"Subhechha Multispeciality Hospitals Pvt. Ltd, Vadodara, Gujarat",22.3007964,73.1743486,openstreetmap_poi,,
"Om Eye Clinic, Vadodara, Gujarat",22.2999762,73.2212283,openstreetmap_poi,,
"Avdhoot Neurosurgical Hospital, Vadodara, Gujarat",22.3070132,73.1703736,openstreetmap_poi,,
"Sameep Children Hospital, Vadodara, Gujarat",22.3140326,73.2222582,openstreetmap_poi,,
"Om E.N.T. Hospital, Vadodara, Gujarat",22.2778969,73.1977482,openstreetmap_poi,,
"Minal Clinic, Vadodara, Gujarat",22.3093874,73.1528896,openstreetmap_poi,,
"Anupama Eye Hospital and Phaco Center, Vadodara, Gujarat",22.327621,73.1548463,openstreetmap_poi,,
"Aum Medical Nursing Home, Vadodara, Gujarat",22.2931814,73.229924,openstreetmap_poi,,
"Baps Pramukh Swami Hospital, Vadodara, Gujarat",22.2755538,73.1581427,openstreetmap_poi,,
"Krishna Nursing Home, Vadodara, Vadodara, Gujarat",22.3356965,73.1783944,openstreetmap_poi,,
"Lifeline Clinic, Vadodara, Gujarat",22.2971453,73.1523733,openstreetmap_poi,,
"Raj Kidacare and Neonatal Care, Vadodara, Gujarat",22.3084996,73.2150988,openstreetmap_poi,,
"Nikunj Clinic, Vadodara, Gujarat",22.2934134,73.2306522,openstreetmap_poi,,
"Shreenath Hospital, Vadodara, Vadodara, Gujarat",22.3279746,73.1546766,openstreetmap_poi,,
"Shailee E.N.T. Hospital, Vadodara, Gujarat",22.3003782,73.2204323,openstreetmap_poi,,
"Sangam Critical Care and Trauma Centre, Vadodara, Gujarat",22.3205888,73.2116555,openstreetmap_poi,,
"Sarthak Hospital and Skin Care Centre, Vadodara, Gujarat",22.3206365,73.1598848,openstreetmap_poi,,
"Baroda Eye Institute, Vadodara, Gujarat",22.3017952,73.2009011,openstreetmap_poi,,
"Gunjan Hospital And Icu Unit, Vadodara, Gujarat",22.3394356,73.1779066,openstreetmap_poi,,
"Maa Children Hospital, Vadodara, Gujarat",22.3083166,73.1798995,openstreetmap_poi,,
"Kamat Eye Hospital, Vadodara, Gujarat",22.3041378,73.1934969,openstreetmap_poi,,
"Aayush Orthopedic Hospital and Joint Replacement Center, Vadodara, Gujarat",22.3029988,73.1975108,openstreetmap_poi,,
"Dr. Shreyas H. Shah, Vadodara, Gujarat",22.3039839,73.2006718,openstreetmap_poi,,
"Shreeji Hospital, Ayurvedic Cross Road, Vadodara, Gujarat",22.3004117,73.2208608,openstreetmap_poi,,
"Mehta Nursing Home, Vadodara, Vadodara, Gujarat",22.3259847,73.1546686,openstreetmap_poi,,
"Atmaj Eye Care Centre, Vadodara, Gujarat",22.3163985,73.1582808,openstreetmap_poi,,
"Monal Surgical Hospital and Endoscopy Center, Vadodara, Gujarat",22.2977018,73.1706069,openstreetmap_poi,,
"Shrinathji Hospital and Icu, Vadodara, Gujarat",22.3034107,73.229354,openstreetmap_poi,,
"Aashray Uro-Andrology Clinic, Vadodara, Gujarat",22.3090567,73.1760317,openstreetmap_poi,,
"Navkar Children Hospital, Vadodara, Vadodara, Gujarat",22.3205497,73.1972332,openstreetmap_poi,,
"Jiruwala Eye Clinic and Phaco Centre, Vadodara, Gujarat",22.2990896,73.2210372,openstreetmap_poi,,
"Gupta Hospital, Vadodara, Vadodara, Gujarat",22.266988,73.2018064,openstreetmap_poi,,
"Ankur Maternity Hospital, Vadodara, Gujarat",22.2765231,73.2021457,openstreetmap_poi,,
"Medical College Hospital, Baroda, Vadodara, Gujarat",22.3044852,73.1917025,openstreetmap_poi,,
"Shree Vijay Vallabh Sarvajanik Hospital, Vadodara, Gujarat",22.3015198,73.2006088,openstreetmap_poi,,
"Dr. Kadam Eye Hospital & Institute, Vadodara, Gujarat",22.3014701,73.1731081,openstreetmap_poi,,
"Vraj Children Hospital, Vadodara, Gujarat",22.3013001,73.2259208,openstreetmap_poi,,
"Mahavir Hospital, Vadodara, Vadodara, Gujarat",22.2918352,73.2297347,openstreetmap_poi,,
"Aatmiya Hospital, Centre For Trauma and Spine, Vadodara, Gujarat",22.2702136,73.2027237,openstreetmap_poi,,
"Samanvaya Trust Hospital, Vadodara, Gujarat",22.301722,73.1988385,openstreetmap_poi,,
"Sanjeevani Nursing Home, Vadodara, Vadodara, Gujarat",22.2917097,73.2041466,openstreetmap_poi,,
"Premdas Jalaram Hospital, Vadodara, Gujarat",22.3122131,73.2229523,openstreetmap_poi,,
"Anukriti Hospital and I.C.U, Vadodara, Gujarat",22.2544772,73.2110654,openstreetmap_poi,,
"Hi-Tech Eye Surgery Clinic, Vadodara, Gujarat",22.3094879,73.1696185,openstreetmap_poi,,
"Shushrusha Clinic, Vadodara, Gujarat",22.2983402,73.2032789,openstreetmap_poi,,
"Modi Clinic, Vadodara, Gujarat",22.3338026,73.1807712,openstreetmap_poi,,
"Urav Hospital, Vadodara, Gujarat",22.2948243,73.1546789,openstreetmap_poi,,
"Rutvij Hospital, Vadodara, Gujarat",22.3108302,73.1538752,openstreetmap_poi,,
"Darsh Orthodontic Clinic, Vadodara, Gujarat",22.3219876,73.1971041,openstreetmap_poi,,
"Saakshi Children Hospital, Vadodara, Gujarat",22.2921726,73.2106993,openstreetmap_poi,,
"Sannidhi Super Speciality Orthopaedic Hospital, Vadodara, Gujarat",22.2935896,73.237927,openstreetmap_poi,,
"Om Prasutigruh Hospital, Vadodara, Gujarat",22.2871966,73.2349813,openstreetmap_poi,,
"Sapan Hospital Maternity and Nursinghom, Vadodara, Gujarat",22.3026182,73.1977234,openstreetmap_poi,,
"San - Dip Nursing Home, Vadodara, Gujarat",22.3342182,73.1790479,openstreetmap_poi,,
"Smita Surgical Clinic, Vadodara, Gujarat",22.3439483,73.1759566,openstreetmap_poi,,
"Aesthetique Centre For Plastic and Cosmetic Surgery, Vadodara, Gujarat",22.3078582,73.1695434,openstreetmap_poi,,
"Rushikesh Maternity Hospital, Vadodara, Gujarat",22.3247528,73.1566574,openstreetmap_poi,,
"Kesha Hospital, Vadodara, Gujarat",22.3093204,73.1719199,openstreetmap_poi,,
"Dr M C Jain, Jain Eye Associates, Vadodara, Gujarat",22.309236,73.1738524,openstreetmap_poi,,
"Krishna Critical Child Care Pvt Ltd, Vadodara, Gujarat",22.3095028,73.1763542,openstreetmap_poi,,
"Kashvi Digestive Centre - Vadodara, Vadodara, Gujarat",22.3140164,73.1746966,openstreetmap_poi,,
"Dev Hospital And Iccu, Vadodara, Vadodara, Gujarat",22.3108762,73.1564288,openstreetmap_poi,,
"Ashutosh Clinic, Vadodara, Gujarat",22.305721,73.2041252,openstreetmap_poi,,
"Sameer Hospital, Vadodara, Gujarat",22.2994303,73.2202855,openstreetmap_poi,,
"Samir Hosptial, Vadodara, Gujarat",22.299764,73.1975584,openstreetmap_poi,,
"Dr Jitendra .C. Gandhi, Vadodara, Gujarat",22.3035981,73.2012619,openstreetmap_poi,,
"Riddhi Hospital, Vadodara, Gujarat",22.3147726,73.1593524,openstreetmap_poi,,
"Noble Nursing Home, Vadodara, Gujarat",22.3379533,73.1781956,openstreetmap_poi,,
"Dhvani Ent Hospital, Vadodara, Gujarat",22.3027357,73.1976872,openstreetmap_poi,,
"Astha Children Hospital, Vadodara, Vadodara, Gujarat",22.2966235,73.151747,openstreetmap_poi,,
"Aaditya Child Care, Vadodara, Gujarat",22.2901983,73.2051471,openstreetmap_poi,,
"Parshwa Dental Clinic, Vadodara, Gujarat",22.3347962,73.1793711,openstreetmap_poi,,
"Aum Advanced Orthopaedic Clinic, Vadodara, Gujarat",22.3082658,73.1752284,openstreetmap_poi,,
"Akshar Orhopedic Hospital - Vadodara, Vadodara, Gujarat",22.3071466,73.1811547,openstreetmap_poi,,
"Shreeji Hospital, Vadodara, Vadodara, Gujarat",22.2927893,73.2369286,openstreetmap_poi,,
"Netra The Eye Hospita, Vadodara, Gujarat",22.2986882,73.171362,openstreetmap_poi,,
"Neel Medical Nursing Home, Vadodara, Gujarat",22.3341615,73.156316,openstreetmap_poi,,
"Sudha Eye Hospital, Vadodara, Gujarat",22.3166107,73.2122549,openstreetmap_poi,,
"Pranayam Lung Institute And Research Centre Hospital, Vadodara, Gujarat",22.3223362,73.2225184,openstreetmap_poi,,
"Burger King, Subhanpura, Vadodara, Gujarat",22.3219443,73.1654796,openstreetmap_poi,,
"McDonald's, Inox Multiplex, Race Course Rd, Vadodara, Gujarat",22.3130881,73.1581583,openstreetmap_poi,,
"McDonald's, Genda Cir, Alkapuri, Vadodara, Gujarat",22.3171604,73.1682542,openstreetmap_poi,,
"McDonald's, Manisha Chowkdi, Vadodara, Gujarat",22.2970337,73.1649712,openstreetmap_poi,,
"McDonald's, Ground Eva Mall patidar, Uma Char Rasta, Vadodara, Gujarat",22.2733459,73.1882821,openstreetmap_poi,,
"McDonald's, near saraswati complex, Vadodara, Gujarat",22.2727018,73.1904577,openstreetmap_poi,,
"Burger King, Old Padra Road, Vadodara, Gujarat",22.3076346,73.1659044,openstreetmap_poi,,
"McDonald's, Fatehgunj, Vadodara, Gujarat",22.3228945,73.1867698,openstreetmap_poi,,
"McDonald's, opposite L&T Knowledge City, Madhavpura, Vadodara, Gujarat",22.3012708,73.2404379,openstreetmap_poi,,
"Subway, Race Course Road, Vadodara, Gujarat",22.3089875,73.1603544,openstreetmap_poi,,
"KFC, Subhanpura, Vadodara, Gujarat",22.3223768,73.1655062,openstreetmap_poi,,
"Domino's, Sarawati road, Vadodara, Gujarat",22.2709058,73.1944365,openstreetmap_poi,,
"Subway, Manjalpur, Vadodara, Gujarat",22.2710488,73.1941976,openstreetmap_poi,,
"KFC, Genda Circle, Vadodara, Gujarat",22.3173237,73.1699104,openstreetmap_poi,,
"Subway, Gorwa Rd, Subhanpura, Vadodara, Gujarat",22.3223109,73.1652321,openstreetmap_poi,,
"Subway, Ganga Jamana Society, Subhanpura, Vadodara, Gujarat",22.3201933,73.1596747,openstreetmap_poi,,
"KFC, Manjalpur, Vadodara, Gujarat",22.2734946,73.1886805,openstreetmap_poi,,
"Subway, University, Sarod, Sayajiganj, Vadodara, Gujarat",22.3089015,73.1866446,openstreetmap_poi,,
"Pizza Hut, Alembic Rd, Gorwa, Vadodara, Gujarat",22.3217705,73.1650009,openstreetmap_poi,,
"Domino's, Vadodara, Gujarat",22.3226584,73.166166,openstreetmap_poi,,
"Domino's, Race Course Road, Vadodara, Gujarat",22.3158697,73.1615258,openstreetmap_poi,,
"Domino's, Narhari Hospital Circle,, Vadodara, Gujarat",22.3190656,73.188303,openstreetmap_poi,,
"Pizza Hut, Manjalpur, Vadodara, Gujarat",22.2735572,73.1881068,openstreetmap_poi,,
"Subway, Jay Santhoshi Nagar, Karelibagh, Vadodara, Gujarat",22.323134,73.1973994,openstreetmap_poi,,
"Pizza Hut, Race Course Rd, Vadodara, Gujarat",22.3121029,73.1649813,openstreetmap_poi,,
"Domino's, near Akshar Chowk, Munjmahuda, Vadodara, Gujarat",22.2829953,73.1662708,openstreetmap_poi,,
"Domino's, New VIP Rd, Vadodara, Gujarat",22.3179465,73.2276885,openstreetmap_poi,,
"Domino's, indrapuri road, Vadodara, Gujarat",22.3003308,73.230419,openstreetmap_poi,,
"Indian Oil, Karelibaug Main Road, Vadodara, Gujarat",22.3239565,73.1975823,openstreetmap_poi,,
"Indian Oil, High Tension Rd,, Vadodara, Gujarat",22.3213939,73.1549782,openstreetmap_poi,,
"Indian Oil, Gujarat Refinery Rd, Vadodara, Gujarat",22.335759,73.1533097,openstreetmap_poi,,
"Indian Oil, Fatehganj Main Rd, Vadodara, Gujarat",22.3239466,73.1885379,openstreetmap_poi,,
"Indian Oil, Nizampura Main Rd, Vadodara, Gujarat",22.3344565,73.180105,openstreetmap_poi,,
"Indian Oil, New Chhani Rd, Vadodara, Gujarat",22.3288592,73.1825726,openstreetmap_poi,,
"Indian Oil, Panigate Road, Vadodara, Gujarat",22.2990384,73.2197376,openstreetmap_poi,,
"Indian Oil, New VIP Ring Road, Vadodara, Gujarat",22.3174358,73.2279556,openstreetmap_poi,,
"Indian Oil, Ajwa Road, Vadodara, Gujarat",22.3024035,73.2265719,openstreetmap_poi,,
"Indian Oil, Harni Rd, Vadodara, Gujarat",22.3134845,73.2116941,openstreetmap_poi,,
"Indian Oil, Manjalpur, Vadodara, Gujarat",22.2716168,73.1907895,openstreetmap_poi,,
"Indian Oil, Vadodara, Gujarat",22.2768734,73.1610199,openstreetmap_poi,,
"Indian Oil, Vasna Road, Vadodara, Gujarat",22.2949315,73.1575476,openstreetmap_poi,,
"255, New Society, Alkapuri, Vadodara, Gujarat - 390007",22.31634604586689,73.17681460507781,generated_residential,Alkapuri,390007
"160, Shree Heights, Alkapuri, Vadodara, Gujarat - 390007",22.301188909315847,73.18685698898885,generated_residential,Alkapuri,390007
"217, Alkapuri Circle, Alkapuri, Vadodara, Gujarat - 390007",22.305903709822907,73.17330103000269,generated_residential,Alkapuri,390007
"284, Alkapuri Street, Alkapuri, Vadodara, Gujarat - 390007",22.307382834398652,73.18100282541499,generated_residential,Alkapuri,390007
"107, Alkapuri Road, Alkapuri, Vadodara, Gujarat - 390007",22.313839012989252,73.17824867030326,generated_residential,Alkapuri,390007
"73, New Park, Alkapuri, Vadodara, Gujarat - 390007",22.306643837290082,73.1841292090203,generated_residential,Alkapuri,390007
"6, Ganga Society, Alkapuri, Vadodara, Gujarat - 390007",22.301748665665624,73.17492674351018,generated_residential,Alkapuri,390007
"198, Sardar Apartment, Alkapuri, Vadodara, Gujarat - 390007",22.306607195727466,73.17179085525133,generated_residential,Alkapuri,390007
"144, New Residency, Alkapuri, Vadodara, Gujarat - 390007",22.31209068675813,73.17232520939514,generated_residential,Alkapuri,390007
"259, Radha Complex, Alkapuri, Vadodara, Gujarat - 390007",22.304045333647924,73.17998878127091,generated_residential,Alkapuri,390007
"250, Ganga Park, Alkapuri, Vadodara, Gujarat - 390007",22.31007912406743,73.18498207954194,generated_residential,Alkapuri,390007
"55, Sardar Society, Alkapuri, Vadodara, Gujarat - 390007",22.31430279464315,73.18219101611584,generated_residential,Alkapuri,390007
"21, Sardar Heights, Alkapuri, Vadodara, Gujarat - 390007",22.303011095384623,73.18380995252933,generated_residential,Alkapuri,390007
"93, Alkapuri Road, Alkapuri, Vadodara, Gujarat - 390007",22.29964857059251,73.1865699746728,generated_residential,Alkapuri,390007
"98, Shree Complex, Alkapuri, Vadodara, Gujarat - 390007",22.304177897613304,73.17284110215617,generated_residential,Alkapuri,390007
"151, Radha Park, Alkapuri, Vadodara, Gujarat - 390007",22.30604386200524,73.17828201704505,generated_residential,Alkapuri,390007
"75, Sardar Apartment, Alkapuri, Vadodara, Gujarat - 390007",22.302193531834497,73.17292052593817,generated_residential,Alkapuri,390007
"96, Radha Apartment, Alkapuri, Vadodara, Gujarat - 390007",22.312991775153417,73.18608943431347,generated_residential,Alkapuri,390007
"208, Sardar Residency, Alkapuri, Vadodara, Gujarat - 390007",22.300337379092184,73.19025346874129,generated_residential,Alkapuri,390007
"28, Radha Park, Alkapuri, Vadodara, Gujarat - 390007",22.313761071543762,73.17621153182651,generated_residential,Alkapuri,390007
"91, Alkapuri Street, Alkapuri, Vadodara, Gujarat - 390007",22.30432648548088,73.17558761442548,generated_residential,Alkapuri,390007
"144, Sardar Heights, Alkapuri, Vadodara, Gujarat - 390007",22.313016272925275,73.18045360550356,generated_residential,Alkapuri,390007
"292, Alkapuri Road, Alkapuri, Vadodara, Gujarat - 390007",22.298966568562946,73.18712678658459,generated_residential,Alkapuri,390007
"53, Radha Apartment, Alkapuri, Vadodara, Gujarat - 390007",22.3157740798259,73.1737752810472,generated_residential,Alkapuri,390007
"252, Radha Park, Alkapuri, Vadodara, Gujarat - 390007",22.298387965226283,73.17715203277484,generated_residential,Alkapuri,390007
"99, New Garden, Alkapuri, Vadodara, Gujarat - 390007",22.302534964592837,73.17938931525785,generated_residential,Alkapuri,390007
"23, Alkapuri Cross, Alkapuri, Vadodara, Gujarat - 390007",22.310584061305228,73.17931991752728,generated_residential,Alkapuri,390007
"300, Krishna Apartment, Alkapuri, Vadodara, Gujarat - 390007",22.31017068487333,73.18574868208678,generated_residential,Alkapuri,390007
"130, New Park, Alkapuri, Vadodara, Gujarat - 390007",22.30951970815898,73.18115075210588,generated_residential,Alkapuri,390007
"212, Alkapuri Lane, Alkapuri, Vadodara, Gujarat - 390007",22.304780382276544,73.18235459349229,generated_residential,Alkapuri,390007
"288, Alkapuri Lane, Alkapuri, Vadodara, Gujarat - 390007",22.30204703485871,73.17833018212036,generated_residential,Alkapuri,390007
"128, Alkapuri Street, Alkapuri, Vadodara, Gujarat - 390007",22.30848679722883,73.18874944960652,generated_residential,Alkapuri,390007
"245, Alkapuri Circle, Alkapuri, Vadodara, Gujarat - 390007",22.298798160646115,73.17274310467327,generated_residential,Alkapuri,390007
"280, Krishna Society, Alkapuri, Vadodara, Gujarat - 390007",22.315842137914863,73.17634860161918,generated_residential,Alkapuri,390007
"140, Alkapuri Road, Alkapuri, Vadodara, Gujarat - 390007",22.310545510037123,73.17874693558768,generated_residential,Alkapuri,390007
"101, Alkapuri Circle, Alkapuri, Vadodara, Gujarat - 390007",22.31435550798261,73.18178621005104,generated_residential,Alkapuri,390007
"107, Alkapuri Circle, Alkapuri, Vadodara, Gujarat - 390007",22.300389905201907,73.17230349010045,generated_residential,Alkapuri,390007
"281, Alkapuri Lane, Alkapuri, Vadodara, Gujarat - 390007",22.308452401382894,73.18918715507135,generated_residential,Alkapuri,390007
"106, Alkapuri Road, Alkapuri, Vadodara, Gujarat - 390007",22.297749266294623,73.1887218952149,generated_residential,Alkapuri,390007
"235, Shree Park, Alkapuri, Vadodara, Gujarat - 390007",22.316814987789694,73.17836439661335,generated_residential,Alkapuri,390007
"40, Shree Complex, Alkapuri, Vadodara, Gujarat - 390007",22.29836867888642,73.1886301704581,generated_residential,Alkapuri,390007
"124, Alkapuri Street, Alkapuri, Vadodara, Gujarat - 390007",22.313929776068772,73.18337730577468,generated_residential,Alkapuri,390007
"121, New Apartment, Alkapuri, Vadodara, Gujarat - 390007",22.316972976300914,73.18854545983388,generated_residential,Alkapuri,390007
"60, Alkapuri Cross, Alkapuri, Vadodara, Gujarat - 390007",22.31629161870862,73.17365325269292,generated_residential,Alkapuri,390007
"291, Sardar Heights, Alkapuri, Vadodara, Gujarat - 390007",22.29751466374563,73.17541247323193,generated_residential,Alkapuri,390007
"71, Alkapuri Street, Alkapuri, Vadodara, Gujarat - 390007",22.301428139824043,73.17164233749061,generated_residential,Alkapuri,390007
"28, Sardar Heights, Alkapuri, Vadodara, Gujarat - 390007",22.31688678559012,73.17979070089876,generated_residential,Alkapuri,390007
"232, Shree Society, Alkapuri, Vadodara, Gujarat - 390007",22.30909380978421,73.17589910175371,generated_residential,Alkapuri,390007
"79, Shree Society, Alkapuri, Vadodara, Gujarat - 390007",22.298466208428692,73.1731053281859,generated_residential,Alkapuri,390007
"111, Alkapuri Lane, Alkapuri, Vadodara, Gujarat - 390007",22.29743628922055,73.17735192912481,generated_residential,Alkapuri,390007
"252, New Residency, Alkapuri, Vadodara, Gujarat - 390007",22.300251239441074,73.17653762604422,generated_residential,Alkapuri,390007
"102, Shree Apartment, Alkapuri, Vadodara, Gujarat - 390007",22.30244074118401,73.18790901001462,generated_residential,Alkapuri,390007
"122, Krishna Park, Alkapuri, Vadodara, Gujarat - 390007",22.308153780469922,73.17489165461535,generated_residential,Alkapuri,390007
"171, New Garden, Alkapuri, Vadodara, Gujarat - 390007",22.308723941228116,73.189286019751,generated_residential,Alkapuri,390007
"158, Alkapuri Cross, Alkapuri, Vadodara, Gujarat - 390007",22.31097234505833,73.18762525137853,generated_residential,Alkapuri,390007
"28, Krishna Society, Alkapuri, Vadodara, Gujarat - 390007",22.314515702804623,73.17652637090427,generated_residential,Alkapuri,390007
"76, Alkapuri Cross, Alkapuri, Vadodara, Gujarat - 390007",22.301606795430846,73.1745820033412,generated_residential,Alkapuri,390007
"46, Alkapuri Circle, Alkapuri, Vadodara, Gujarat - 390007",22.297786868390006,73.18538512745883,generated_residential,Alkapuri,390007
"211, Alkapuri Street, Alkapuri, Vadodara, Gujarat - 390007",22.30836480202521,73.1804761014815,generated_residential,Alkapuri,390007
"168, Radha Society, Alkapuri, Vadodara, Gujarat - 390007",22.314859466094017,73.18379592056897,generated_residential,Alkapuri,390007
"78, Alkapuri Circle, Alkapuri, Vadodara, Gujarat - 390007",22.30215018371761,73.18235435276932,generated_residential,Alkapuri,390007
"130, Alkapuri Lane, Alkapuri, Vadodara, Gujarat - 390007",22.304036672602695,73.1736709264237,generated_residential,Alkapuri,390007
"236, Ganga Park, Alkapuri, Vadodara, Gujarat - 390007",22.297889385798037,73.17706012908785,generated_residential,Alkapuri,390007
"164, Krishna Residency, Alkapuri, Vadodara, Gujarat - 390007",22.31536329588381,73.19003361107636,generated_residential,Alkapuri,390007
"163, New Garden, Alkapuri, Vadodara, Gujarat - 390007",22.30916432722516,73.18111013222666,generated_residential,Alkapuri,390007
"181, New Complex, Alkapuri, Vadodara, Gujarat - 390007",22.297586190783388,73.17993010989508,generated_residential,Alkapuri,390007
"46, Krishna Residency, Alkapuri, Vadodara, Gujarat - 390007",22.306154984255475,73.18998892163567,generated_residential,Alkapuri,390007
"139, Alkapuri Lane, Alkapuri, Vadodara, Gujarat - 390007",22.314160714750386,73.1901535413238,generated_residential,Alkapuri,390007
"97, Shree Park, Alkapuri, Vadodara, Gujarat - 390007",22.315860871016096,73.17802894736762,generated_residential,Alkapuri,390007
"170, Shree Heights, Alkapuri, Vadodara, Gujarat - 390007",22.314247320566746,73.17909628362398,generated_residential,Alkapuri,390007
"66, Alkapuri Cross, Alkapuri, Vadodara, Gujarat - 390007",22.299455866409986,73.18708959807091,generated_residential,Alkapuri,390007
"120, Ganga Complex, Alkapuri, Vadodara, Gujarat - 390007",22.309639963351486,73.19117229687616,generated_residential,Alkapuri,390007
"130, Shree Apartment, Alkapuri, Vadodara, Gujarat - 390007",22.308686866937176,73.18440911987547,generated_residential,Alkapuri,390007
"243, Alkapuri Lane, Alkapuri, Vadodara, Gujarat - 390007",22.300474639173437,73.17458128488245,generated_residential,Alkapuri,390007
"140, Alkapuri Cross, Alkapuri, Vadodara, Gujarat - 390007",22.31700678875795,73.18072434430741,generated_residential,Alkapuri,390007
"67, Alkapuri Road, Alkapuri, Vadodara, Gujarat - 390007",22.31595426648091,73.17761629328203,generated_residential,Alkapuri,390007
"207, Radha Complex, Alkapuri, Vadodara, Gujarat - 390007",22.31436709157539,73.18010036208895,generated_residential,Alkapuri,390007
"6, Shree Complex, Alkapuri, Vadodara, Gujarat - 390007",22.304202437751623,73.18271928067077,generated_residential,Alkapuri,390007
"87, Radha Apartment, Akota, Vadodara, Gujarat - 390020",22.322695291125804,73.19602427251765,generated_residential,Akota,390020
"271, Akota Lane, Akota, Vadodara, Gujarat - 390020",22.332670675812285,73.19136123499611,generated_residential,Akota,390020
"34, Akota Lane, Akota, Vadodara, Gujarat - 390020",22.32182430555894,73.19860371212833,generated_residential,Akota,390020
"211, Krishna Park, Akota, Vadodara, Gujarat - 390020",22.33461134642505,73.19813870335726,generated_residential,Akota,390020
"72, Akota Cross, Akota, Vadodara, Gujarat - 390020",22.337513868517057,73.19825790406688,generated_residential,Akota,390020
"80, Akota Road, Akota, Vadodara, Gujarat - 390020",22.334997007101794,73.1978807857136,generated_residential,Akota,390020
"205, Radha Garden, Akota, Vadodara, Gujarat - 390020",22.324271831015153,73.19632213739263,generated_residential,Akota,390020
"21, Ganga Apartment, Akota, Vadodara, Gujarat - 390020",22.333466669615337,73.20631032463102,generated_residential,Akota,390020
"4, Akota Road, Akota, Vadodara, Gujarat - 390020",22.32902947747456,73.19174397372248,generated_residential,Akota,390020
"99, Akota Circle, Akota, Vadodara, Gujarat - 390020",22.336430490275813,73.19996523323827,generated_residential,Akota,390020
"147, Radha Park, Akota, Vadodara, Gujarat - 390020",22.318604813299043,73.19091196562391,generated_residential,Akota,390020
"134, Akota Circle, Akota, Vadodara, Gujarat - 390020",22.333757276682398,73.19978594913644,generated_residential,Akota,390020
"265, Sardar Garden, Akota, Vadodara, Gujarat - 390020",22.33732224455401,73.20670143553384,generated_residential,Akota,390020
"171, Akota Cross, Akota, Vadodara, Gujarat - 390020",22.325519208335077,73.19498365928025,generated_residential,Akota,390020
"263, Krishna Garden, Akota, Vadodara, Gujarat - 390020",22.323101532246177,73.1967267215501,generated_residential,Akota,390020
"6, Ganga Heights, Akota, Vadodara, Gujarat - 390020",22.33271101735576,73.20991964597228,generated_residential,Akota,390020
"143, Radha Heights, Akota, Vadodara, Gujarat - 390020",22.32783630119523,73.19671943963228,generated_residential,Akota,390020
"263, New Society, Akota, Vadodara, Gujarat - 390020",22.33275471633887,73.20406852407731,generated_residential,Akota,390020
"213, Ganga Complex, Akota, Vadodara, Gujarat - 390020",22.33279091879873,73.19897141766873,generated_residential,Akota,390020
"162, Akota Street, Akota, Vadodara, Gujarat - 390020",22.33729201362516,73.20547359558442,generated_residential,Akota,390020
"246, Akota Cross, Akota, Vadodara, Gujarat - 390020",22.333528918801832,73.19639140313491,generated_residential,Akota,390020
"223, Akota Circle, Akota, Vadodara, Gujarat - 390020",22.325475761928367,73.19271925251111,generated_residential,Akota,390020
"217, Akota Street, Akota, Vadodara, Gujarat - 390020",22.31847889117019,73.19605055870674,generated_residential,Akota,390020
"240, Akota Lane, Akota, Vadodara, Gujarat - 390020",22.32320764891044,73.20082774622836,generated_residential,Akota,390020
"91, Akota Lane, Akota, Vadodara, Gujarat - 390020",22.327656637491256,73.20245226454121,generated_residential,Akota,390020
"150, Shree Apartment, Akota, Vadodara, Gujarat - 390020",22.331401408267105,73.194980331736,generated_residential,Akota,390020
"30, Akota Cross, Akota, Vadodara, Gujarat - 390020",22.32502938299055,73.19901300808698,generated_residential,Akota,390020
"198, Radha Garden, Akota, Vadodara, Gujarat - 390020",22.318328645834463,73.19229313535956,generated_residential,Akota,390020
"219, Ganga Residency, Akota, Vadodara, Gujarat - 390020",22.33617110894053,73.20252916034973,generated_residential,Akota,390020
"272, Akota Street, Akota, Vadodara, Gujarat - 390020",22.331253458314485,73.19679525396698,generated_residential,Akota,390020
"253, New Apartment, Akota, Vadodara, Gujarat - 390020",22.337338425858004,73.20075788312434,generated_residential,Akota,390020
"143, Sardar Heights, Akota, Vadodara, Gujarat - 390020",22.329336956174995,73.21025359907951,generated_residential,Akota,390020
"43, New Garden, Akota, Vadodara, Gujarat - 390020",22.334067353024203,73.2065591987059,generated_residential,Akota,390020
"11, Krishna Society, Akota, Vadodara, Gujarat - 390020",22.331486515240485,73.20807194810786,generated_residential,Akota,390020
"252, Akota Street, Akota, Vadodara, Gujarat - 390020",22.326484380196362,73.19666686059689,generated_residential,Akota,390020
"193, Akota Street, Akota, Vadodara, Gujarat - 390020",22.317729092331717,73.20709963963165,generated_residential,Akota,390020
"108, Ganga Park, Akota, Vadodara, Gujarat - 390020",22.319408155938888,73.19941741296367,generated_residential,Akota,390020
"158, New Society, Akota, Vadodara, Gujarat - 390020",22.326205709569496,73.20911493610042,generated_residential,Akota,390020
"88, Sardar Heights, Akota, Vadodara, Gujarat - 390020",22.320856056243734,73.20936601139711,generated_residential,Akota,390020
"274, New Garden, Akota, Vadodara, Gujarat - 390020",22.319859735485647,73.19430709769946,generated_residential,Akota,390020
"294, Shree Garden, Akota, Vadodara, Gujarat - 390020",22.333475592911523,73.20910049528565,generated_residential,Akota,390020
"188, Shree Heights, Akota, Vadodara, Gujarat - 390020",22.334492239936164,73.21012187968637,generated_residential,Akota,390020
"198, New Society, Akota, Vadodara, Gujarat - 390020",22.33124404026702,73.19251928799632,generated_residential,Akota,390020
"47, Shree Complex, Akota, Vadodara, Gujarat - 390020",22.329953174901146,73.20077731193041,generated_residential,Akota,390020
"50, Ganga Complex, Akota, Vadodara, Gujarat - 390020",22.332892387379122,73.19513352803659,generated_residential,Akota,390020
"245, Shree Complex, Akota, Vadodara, Gujarat - 390020",22.337461692161323,73.19682324244835,generated_residential,Akota,390020
"2, Akota Lane, Akota, Vadodara, Gujarat - 390020",22.31838607157024,73.20611499962169,generated_residential,Akota,390020
"259, Akota Lane, Akota, Vadodara, Gujarat - 390020",22.3262231634683,73.2062861441774,generated_residential,Akota,390020
"91, New Heights, Akota, Vadodara, Gujarat - 390020",22.318481653731375,73.20568315934746,generated_residential,Akota,390020
"252, Krishna Society, Akota, Vadodara, Gujarat - 390020",22.33469961677218,73.20293800816825,generated_residential,Akota,390020
"20, Akota Road, Akota, Vadodara, Gujarat - 390020",22.322029486724773,73.19879489374574,generated_residential,Akota,390020
"156, Krishna Society, Akota, Vadodara, Gujarat - 390020",22.337346984177973,73.2064362796479,generated_residential,Akota,390020
"142, Akota Street, Akota, Vadodara, Gujarat - 390020",22.3355910889333,73.20664115264006,generated_residential,Akota,390020
"245, Sardar Garden, Akota, Vadodara, Gujarat - 390020",22.318614352606794,73.19650658909228,generated_residential,Akota,390020
"31, Akota Road, Akota, Vadodara, Gujarat - 390020",22.334102592138077,73.20987824141898,generated_residential,Akota,390020
"133, Krishna Residency, Akota, Vadodara, Gujarat - 390020",22.335240421592164,73.19478841160868,generated_residential,Akota,390020
"272, Akota Road, Akota, Vadodara, Gujarat - 390020",22.325465765146983,73.19502009254035,generated_residential,Akota,390020
"216, Sardar Heights, Akota, Vadodara, Gujarat - 390020",22.323040788231417,73.1951439617232,generated_residential,Akota,390020
"173, Ganga Heights, Akota, Vadodara, Gujarat - 390020",22.320896630544485,73.20688590529086,generated_residential,Akota,390020
"206, Radha Residency, Akota, Vadodara, Gujarat - 390020",22.337341906983422,73.19645547343522,generated_residential,Akota,390020
"169, Akota Lane, Akota, Vadodara, Gujarat - 390020",22.337383902988133,73.20792750008306,generated_residential,Akota,390020
"73, Akota Lane, Akota, Vadodara, Gujarat - 390020",22.325190322745815,73.2021428043598,generated_residential,Akota,390020
"154, Shree Complex, Akota, Vadodara, Gujarat - 390020",22.328392693923142,73.19713714083466,generated_residential,Akota,390020
"130, Akota Cross, Akota, Vadodara, Gujarat - 390020",22.322195231369097,73.2082288079823,generated_residential,Akota,390020
"5, Shree Garden, Akota, Vadodara, Gujarat - 390020",22.326639569780088,73.19409491027832,generated_residential,Akota,390020
"197, Shree Residency, Akota, Vadodara, Gujarat - 390020",22.33054023217932,73.20373823183255,generated_residential,Akota,390020
"194, Radha Residency, Akota, Vadodara, Gujarat - 390020",22.33410281420693,73.19418764373901,generated_residential,Akota,390020
"18, Akota Circle, Akota, Vadodara, Gujarat - 390020",22.333466113041002,73.21025537011775,generated_residential,Akota,390020
"237, Akota Cross, Akota, Vadodara, Gujarat - 390020",22.33047506172225,73.20426832480236,generated_residential,Akota,390020
"120, Krishna Residency, Akota, Vadodara, Gujarat - 390020",22.324471274478764,73.19806516578187,generated_residential,Akota,390020
"59, Sardar Heights, Akota, Vadodara, Gujarat - 390020",22.323203080995132,73.19447711795353,generated_residential,Akota,390020
"240, Krishna Complex, Akota, Vadodara, Gujarat - 390020",22.332730207954256,73.20069705025197,generated_residential,Akota,390020
"220, Ganga Garden, Akota, Vadodara, Gujarat - 390020",22.334797762552995,73.19242386470097,generated_residential,Akota,390020
"144, Akota Street, Akota, Vadodara, Gujarat - 390020",22.32443708207136,73.19732363800287,generated_residential,Akota,390020
"2, Akota Cross, Akota, Vadodara, Gujarat - 390020",22.33239398260198,73.19435926387364,generated_residential,Akota,390020
"169, Shree Residency, Akota, Vadodara, Gujarat - 390020",22.326385985445985,73.20117152167752,generated_residential,Akota,390020
"64, Sardar Park, Akota, Vadodara, Gujarat - 390020",22.3358882488756,73.20297792659397,generated_residential,Akota,390020
"191, Shree Apartment, Akota, Vadodara, Gujarat - 390020",22.326556968400357,73.19149403402305,generated_residential,Akota,390020
"264, Akota Street, Akota, Vadodara, Gujarat - 390020",22.320969845532467,73.20303199752011,generated_residential,Akota,390020
"143, New Residency, Fatehgunj, Vadodara, Gujarat - 390002",22.310404890292087,73.19776428041439,generated_residential,Fatehgunj,390002
"21, Ganga Apartment, Fatehgunj, Vadodara, Gujarat - 390002",22.320005286430355,73.1878285730694,generated_residential,Fatehgunj,390002
"280, Ganga Society, Fatehgunj, Vadodara, Gujarat - 390002",22.309378647689737,73.19565577611843,generated_residential,Fatehgunj,390002
"290, Fatehgunj Circle, Fatehgunj, Vadodara, Gujarat - 390002",22.325880793757804,73.18659563351495,generated_residential,Fatehgunj,390002
"39, Fatehgunj Street, Fatehgunj, Vadodara, Gujarat - 390002",22.309987082685797,73.18197505000809,generated_residential,Fatehgunj,390002
"161, Fatehgunj Cross, Fatehgunj, Vadodara, Gujarat - 390002",22.327121019814346,73.19964073326085,generated_residential,Fatehgunj,390002
"299, Sardar Residency, Fatehgunj, Vadodara, Gujarat - 390002",22.31165524366707,73.19419390922823,generated_residential,Fatehgunj,390002
"168, New Complex, Fatehgunj, Vadodara, Gujarat - 390002",22.323931807048094,73.19982996165804,generated_residential,Fatehgunj,390002
"268, Radha Apartment, Fatehgunj, Vadodara, Gujarat - 390002",22.327185914726797,73.1930009362159,generated_residential,Fatehgunj,390002
"103, Fatehgunj Street, Fatehgunj, Vadodara, Gujarat - 390002",22.31031719890019,73.19797402336387,generated_residential,Fatehgunj,390002
"297, New Residency, Fatehgunj, Vadodara, Gujarat - 390002",22.32129715912271,73.19684015335213,generated_residential,Fatehgunj,390002
"255, Fatehgunj Road, Fatehgunj, Vadodara, Gujarat - 390002",22.32553724081221,73.19267265757132,generated_residential,Fatehgunj,390002
"62, New Residency, Fatehgunj, Vadodara, Gujarat - 390002",22.313095701863613,73.19658065572759,generated_residential,Fatehgunj,390002
"173, Fatehgunj Street, Fatehgunj, Vadodara, Gujarat - 390002",22.318866886976544,73.19085400729986,generated_residential,Fatehgunj,390002
"236, Fatehgunj Circle, Fatehgunj, Vadodara, Gujarat - 390002",22.31892660175615,73.18794168063798,generated_residential,Fatehgunj,390002
"140, Fatehgunj Road, Fatehgunj, Vadodara, Gujarat - 390002",22.323804778970995,73.18662106787049,generated_residential,Fatehgunj,390002
"276, Radha Residency, Fatehgunj, Vadodara, Gujarat - 390002",22.316024275325997,73.18315887911584,generated_residential,Fatehgunj,390002
"3, Fatehgunj Lane, Fatehgunj, Vadodara, Gujarat - 390002",22.323411336810217,73.1885897342524,generated_residential,Fatehgunj,390002
"54, Sardar Apartment, Fatehgunj, Vadodara, Gujarat - 390002",22.326527719066988,73.18642503156663,generated_residential,Fatehgunj,390002
"41, Ganga Park, Fatehgunj, Vadodara, Gujarat - 390002",22.32383303609923,73.18995119185384,generated_residential,Fatehgunj,390002
"56, Krishna Complex, Fatehgunj, Vadodara, Gujarat - 390002",22.315847259762307,73.19130153886755,generated_residential,Fatehgunj,390002
"225, Radha Society, Fatehgunj, Vadodara, Gujarat - 390002",22.32505621571952,73.18798694839806,generated_residential,Fatehgunj,390002
"87, Krishna Heights, Fatehgunj, Vadodara, Gujarat - 390002",22.313407985685554,73.1926739468395,generated_residential,Fatehgunj,390002
"184, Fatehgunj Circle, Fatehgunj, Vadodara, Gujarat - 390002",22.321242314206337,73.1960895822153,generated_residential,Fatehgunj,390002
"34, New Society, Fatehgunj, Vadodara, Gujarat - 390002",22.312062274874425,73.19815758702393,generated_residential,Fatehgunj,390002
"214, Krishna Apartment, Fatehgunj, Vadodara, Gujarat - 390002",22.314318674026012,73.18575654591362,generated_residential,Fatehgunj,390002
"131, Fatehgunj Cross, Fatehgunj, Vadodara, Gujarat - 390002",22.323327201227823,73.18534833409011,generated_residential,Fatehgunj,390002
"164, Radha Society, Fatehgunj, Vadodara, Gujarat - 390002",22.316834705323803,73.19707626225045,generated_residential,Fatehgunj,390002
"4, New Society, Fatehgunj, Vadodara, Gujarat - 390002",22.323105845593577,73.18484449619737,generated_residential,Fatehgunj,390002
"119, Fatehgunj Street, Fatehgunj, Vadodara, Gujarat - 390002",22.32109660177449,73.19418720892938,generated_residential,Fatehgunj,390002
"99, Shree Heights, Fatehgunj, Vadodara, Gujarat - 390002",22.312583954064714,73.19159701618162,generated_residential,Fatehgunj,390002
"206, Radha Park, Fatehgunj, Vadodara, Gujarat - 390002",22.317610172464985,73.18705557489035,generated_residential,Fatehgunj,390002
"58, Sardar Heights, Fatehgunj, Vadodara, Gujarat - 390002",22.31097042922399,73.19493561067641,generated_residential,Fatehgunj,390002
"252, Fatehgunj Circle, Fatehgunj, Vadodara, Gujarat - 390002",22.31573529054587,73.18399544198643,generated_residential,Fatehgunj,390002
"232, Krishna Garden, Fatehgunj, Vadodara, Gujarat - 390002",22.3171069818295,73.19936576736522,generated_residential,Fatehgunj,390002
"58, Ganga Complex, Fatehgunj, Vadodara, Gujarat - 390002",22.318107817158918,73.19636517393423,generated_residential,Fatehgunj,390002
"256, Fatehgunj Road, Fatehgunj, Vadodara, Gujarat - 390002",22.325609753412405,73.18770864206739,generated_residential,Fatehgunj,390002
"20, Ganga Residency, Fatehgunj, Vadodara, Gujarat - 390002",22.312294232533063,73.19569041252531,generated_residential,Fatehgunj,390002
"190, Fatehgunj Road, Fatehgunj, Vadodara, Gujarat - 390002",22.31219158222873,73.19408345359886,generated_residential,Fatehgunj,390002
"258, Shree Garden, Fatehgunj, Vadodara, Gujarat - 390002",22.324933284957766,73.19843712834178,generated_residential,Fatehgunj,390002
"85, Krishna Heights, Fatehgunj, Vadodara, Gujarat - 390002",22.31772198792222,73.1993584145733,generated_residential,Fatehgunj,390002
"263, Shree Park, Fatehgunj, Vadodara, Gujarat - 390002",22.326672810208926,73.18507826973467,generated_residential,Fatehgunj,390002
"31, Ganga Park, Fatehgunj, Vadodara, Gujarat - 390002",22.32290016817701,73.18535834185262,generated_residential,Fatehgunj,390002
"146, Fatehgunj Road, Fatehgunj, Vadodara, Gujarat - 390002",22.311983547302432,73.19189786519911,generated_residential,Fatehgunj,390002
"72, Krishna Heights, Fatehgunj, Vadodara, Gujarat - 390002",22.32428521150339,73.19337535490985,generated_residential,Fatehgunj,390002
"105, Fatehgunj Road, Fatehgunj, Vadodara, Gujarat - 390002",22.328294380688074,73.18691785433876,generated_residential,Fatehgunj,390002
"180, Fatehgunj Road, Fatehgunj, Vadodara, Gujarat - 390002",22.32840401994268,73.18889190305153,generated_residential,Fatehgunj,390002
"160, Krishna Society, Fatehgunj, Vadodara, Gujarat - 390002",22.312090386468682,73.1854675293635,generated_residential,Fatehgunj,390002
"104, Shree Society, Fatehgunj, Vadodara, Gujarat - 390002",22.31179893948763,73.18187102947644,generated_residential,Fatehgunj,390002
"126, Fatehgunj Circle, Fatehgunj, Vadodara, Gujarat - 390002",22.316869838916034,73.19141650720621,generated_residential,Fatehgunj,390002
"75, Fatehgunj Street, Fatehgunj, Vadodara, Gujarat - 390002",22.327001568353673,73.1892021391621,generated_residential,Fatehgunj,390002
"173, Ganga Society, Fatehgunj, Vadodara, Gujarat - 390002",22.310295798942523,73.19273449693706,generated_residential,Fatehgunj,390002
"258, Radha Park, Fatehgunj, Vadodara, Gujarat - 390002",22.315727758923334,73.19868242394966,generated_residential,Fatehgunj,390002
"99, New Garden, Fatehgunj, Vadodara, Gujarat - 390002",22.321069340781076,73.18889135740173,generated_residential,Fatehgunj,390002
"127, Radha Residency, Fatehgunj, Vadodara, Gujarat - 390002",22.319629204671003,73.19136789935838,generated_residential,Fatehgunj,390002
"121, Fatehgunj Road, Fatehgunj, Vadodara, Gujarat - 390002",22.323692086886325,73.1837236863688,generated_residential,Fatehgunj,390002
"72, Fatehgunj Cross, Fatehgunj, Vadodara, Gujarat - 390002",22.31859111012043,73.18531506845224,generated_residential,Fatehgunj,390002
"297, Radha Apartment, Fatehgunj, Vadodara, Gujarat - 390002",22.316943413675272,73.18868689782593,generated_residential,Fatehgunj,390002
"257, New Apartment, Fatehgunj, Vadodara, Gujarat - 390002",22.321644394141483,73.19349912052225,generated_residential,Fatehgunj,390002
"95, New Society, Fatehgunj, Vadodara, Gujarat - 390002",22.311747494942082,73.19050101534206,generated_residential,Fatehgunj,390002
"129, Fatehgunj Lane, Fatehgunj, Vadodara, Gujarat - 390002",22.320390262131433,73.19039806728966,generated_residential,Fatehgunj,390002
"243, Krishna Park, Fatehgunj, Vadodara, Gujarat - 390002",22.326713846509815,73.19362553268435,generated_residential,Fatehgunj,390002
"47, Radha Heights, Fatehgunj, Vadodara, Gujarat - 390002",22.327180535019107,73.19599855429202,generated_residential,Fatehgunj,390002
"155, New Park, Fatehgunj, Vadodara, Gujarat - 390002",22.327368417026257,73.19538375741452,generated_residential,Fatehgunj,390002
"128, Shree Garden, Fatehgunj, Vadodara, Gujarat - 390002",22.311199211296195,73.19449580747555,generated_residential,Fatehgunj,390002
"260, Fatehgunj Street, Fatehgunj, Vadodara, Gujarat - 390002",22.31460047057293,73.18412171419737,generated_residential,Fatehgunj,390002
"108, Krishna Park, Fatehgunj, Vadodara, Gujarat - 390002",22.311062609693145,73.18500478283103,generated_residential,Fatehgunj,390002
"216, Ganga Heights, Fatehgunj, Vadodara, Gujarat - 390002",22.328039413803097,73.19686526246471,generated_residential,Fatehgunj,390002
"287, Ganga Apartment, Fatehgunj, Vadodara, Gujarat - 390002",22.327416954665885,73.1826166567587,generated_residential,Fatehgunj,390002
"233, Krishna Park, Fatehgunj, Vadodara, Gujarat - 390002",22.327271018749784,73.19694837268825,generated_residential,Fatehgunj,390002
"105, Shree Park, Fatehgunj, Vadodara, Gujarat - 390002",22.323358545330663,73.19317850454534,generated_residential,Fatehgunj,390002
"216, Radha Residency, Fatehgunj, Vadodara, Gujarat - 390002",22.31215352851867,73.18338549813444,generated_residential,Fatehgunj,390002
"220, Sardar Complex, Fatehgunj, Vadodara, Gujarat - 390002",22.319206811043205,73.18343647293398,generated_residential,Fatehgunj,390002
"263, Krishna Heights, Fatehgunj, Vadodara, Gujarat - 390002",22.314761404944168,73.19300570875016,generated_residential,Fatehgunj,390002
"70, Shree Society, Fatehgunj, Vadodara, Gujarat - 390002",22.320386158415744,73.18149163308483,generated_residential,Fatehgunj,390002
"154, Fatehgunj Lane, Fatehgunj, Vadodara, Gujarat - 390002",22.313548544040255,73.19515480450829,generated_residential,Fatehgunj,390002
"205, Radha Residency, Fatehgunj, Vadodara, Gujarat - 390002",22.30991414355329,73.18580826840906,generated_residential,Fatehgunj,390002
"243, Shree Residency, Fatehgunj, Vadodara, Gujarat - 390002",22.31137127503681,73.1831756583142,generated_residential,Fatehgunj,390002
"87, Fatehgunj Lane, Fatehgunj, Vadodara, Gujarat - 390002",22.313899263975884,73.19930756663311,generated_residential,Fatehgunj,390002
"179, Fatehgunj Cross, Fatehgunj, Vadodara, Gujarat - 390002",22.312851558263418,73.19222584864742,generated_residential,Fatehgunj,390002
"36, Krishna Residency, Sayajigunj, Vadodara, Gujarat - 390005",22.301564593369857,73.19324088487588,generated_residential,Sayajigunj,390005
"239, Ganga Garden, Sayajigunj, Vadodara, Gujarat - 390005",22.30726024956895,73.18748693589346,generated_residential,Sayajigunj,390005
"265, New Residency, Sayajigunj, Vadodara, Gujarat - 390005",22.305099870719495,73.18561984314626,generated_residential,Sayajigunj,390005
"228, Shree Park, Sayajigunj, Vadodara, Gujarat - 390005",22.295864780948648,73.19282403233362,generated_residential,Sayajigunj,390005
"203, Krishna Society, Sayajigunj, Vadodara, Gujarat - 390005",22.303212382743236,73.19256785794848,generated_residential,Sayajigunj,390005
"256, Ganga Complex, Sayajigunj, Vadodara, Gujarat - 390005",22.307025535534997,73.18948830843566,generated_residential,Sayajigunj,390005
"270, Sardar Garden, Sayajigunj, Vadodara, Gujarat - 390005",22.297279906803674,73.19052193921449,generated_residential,Sayajigunj,390005
"275, Krishna Garden, Sayajigunj, Vadodara, Gujarat - 390005",22.309636186967214,73.18141976400535,generated_residential,Sayajigunj,390005
"294, Sayajigunj Cross, Sayajigunj, Vadodara, Gujarat - 390005",22.306583192220074,73.18893739460837,generated_residential,Sayajigunj,390005
"113, Krishna Heights, Sayajigunj, Vadodara, Gujarat - 390005",22.309363309680858,73.18402768794935,generated_residential,Sayajigunj,390005
"107, Ganga Garden, Sayajigunj, Vadodara, Gujarat - 390005",22.304018087125826,73.19730064216542,generated_residential,Sayajigunj,390005
"204, Sayajigunj Circle, Sayajigunj, Vadodara, Gujarat - 390005",22.303331394084612,73.1958235775644,generated_residential,Sayajigunj,390005
"17, Ganga Park, Sayajigunj, Vadodara, Gujarat - 390005",22.294421876006233,73.18452110017698,generated_residential,Sayajigunj,390005
"218, Sayajigunj Street, Sayajigunj, Vadodara, Gujarat - 390005",22.298006590816463,73.18828600485449,generated_residential,Sayajigunj,390005
"61, Sayajigunj Lane, Sayajigunj, Vadodara, Gujarat - 390005",22.299664122919232,73.19050591424516,generated_residential,Sayajigunj,390005
"80, Sayajigunj Road, Sayajigunj, Vadodara, Gujarat - 390005",22.304580821802617,73.19225860692978,generated_residential,Sayajigunj,390005
"214, Sayajigunj Road, Sayajigunj, Vadodara, Gujarat - 390005",22.300251863898406,73.19504386824235,generated_residential,Sayajigunj,390005
"239, Ganga Heights, Sayajigunj, Vadodara, Gujarat - 390005",22.299619375696253,73.19654950974409,generated_residential,Sayajigunj,390005
"101, Krishna Apartment, Sayajigunj, Vadodara, Gujarat - 390005",22.296707478676556,73.18396737383249,generated_residential,Sayajigunj,390005
"90, Sayajigunj Lane, Sayajigunj, Vadodara, Gujarat - 390005",22.293564608132925,73.19847342932134,generated_residential,Sayajigunj,390005
"112, Ganga Complex, Sayajigunj, Vadodara, Gujarat - 390005",22.3029726062449,73.19943909848583,generated_residential,Sayajigunj,390005
"94, Radha Heights, Sayajigunj, Vadodara, Gujarat - 390005",22.29249628386925,73.19816136510418,generated_residential,Sayajigunj,390005
"131, Sayajigunj Street, Sayajigunj, Vadodara, Gujarat - 390005",22.29386817516757,73.19661854602478,generated_residential,Sayajigunj,390005
"99, Ganga Park, Sayajigunj, Vadodara, Gujarat - 390005",22.2990592281043,73.18542643569498,generated_residential,Sayajigunj,390005
"43, Sardar Complex, Sayajigunj, Vadodara, Gujarat - 390005",22.305229671884863,73.18923024414416,generated_residential,Sayajigunj,390005
"30, Ganga Garden, Sayajigunj, Vadodara, Gujarat - 390005",22.296426665344573,73.1821187793913,generated_residential,Sayajigunj,390005
"114, Ganga Complex, Sayajigunj, Vadodara, Gujarat - 390005",22.30899595251335,73.1987245503013,generated_residential,Sayajigunj,390005
"250, Shree Society, Sayajigunj, Vadodara, Gujarat - 390005",22.302366063540866,73.19753782766779,generated_residential,Sayajigunj,390005
"267, Radha Society, Sayajigunj, Vadodara, Gujarat - 390005",22.29520835962044,73.18935317631016,generated_residential,Sayajigunj,390005
"136, Sayajigunj Lane, Sayajigunj, Vadodara, Gujarat - 390005",22.291713488617447,73.18508175700339,generated_residential,Sayajigunj,390005
"191, Sayajigunj Road, Sayajigunj, Vadodara, Gujarat - 390005",22.306079076697188,73.19114080051732,generated_residential,Sayajigunj,390005
"97, Sayajigunj Lane, Sayajigunj, Vadodara, Gujarat - 390005",22.30062233760469,73.17986933799446,generated_residential,Sayajigunj,390005
"34, Radha Heights, Sayajigunj, Vadodara, Gujarat - 390005",22.29419770068853,73.18156871631643,generated_residential,Sayajigunj,390005
"154, Sardar Park, Sayajigunj, Vadodara, Gujarat - 390005",22.299620067694587,73.18086122289816,generated_residential,Sayajigunj,390005
"160, Sayajigunj Street, Sayajigunj, Vadodara, Gujarat - 390005",22.300953284658746,73.18999391191005,generated_residential,Sayajigunj,390005
"280, Sayajigunj Lane, Sayajigunj, Vadodara, Gujarat - 390005",22.30212648827817,73.19344130544819,generated_residential,Sayajigunj,390005
"110, Sayajigunj Circle, Sayajigunj, Vadodara, Gujarat - 390005",22.299159076856682,73.19674045431711,generated_residential,Sayajigunj,390005
"73, Sayajigunj Road, Sayajigunj, Vadodara, Gujarat - 390005",22.30509625009679,73.18884066832334,generated_residential,Sayajigunj,390005
"223, Sayajigunj Circle, Sayajigunj, Vadodara, Gujarat - 390005",22.29815216771359,73.1958958936016,generated_residential,Sayajigunj,390005
"211, Sayajigunj Circle, Sayajigunj, Vadodara, Gujarat - 390005",22.309878793898616,73.196146893844,generated_residential,Sayajigunj,390005
"134, Radha Society, Sayajigunj, Vadodara, Gujarat - 390005",22.291881476732225,73.18080298033352,generated_residential,Sayajigunj,390005
"102, Sayajigunj Street, Sayajigunj, Vadodara, Gujarat - 390005",22.30706221845939,73.1873470940632,generated_residential,Sayajigunj,390005
"108, Shree Apartment, Sayajigunj, Vadodara, Gujarat - 390005",22.310974433054042,73.18046104794855,generated_residential,Sayajigunj,390005
"199, Krishna Heights, Sayajigunj, Vadodara, Gujarat - 390005",22.308415840566763,73.19929060362284,generated_residential,Sayajigunj,390005
"179, Sayajigunj Circle, Sayajigunj, Vadodara, Gujarat - 390005",22.297050216270122,73.19037619883919,generated_residential,Sayajigunj,390005
"154, Ganga Garden, Sayajigunj, Vadodara, Gujarat - 390005",22.306707320425495,73.18942392777873,generated_residential,Sayajigunj,390005
"178, Ganga Complex, Sayajigunj, Vadodara, Gujarat - 390005",22.305981268707686,73.18671946945226,generated_residential,Sayajigunj,390005
"200, Sayajigunj Circle, Sayajigunj, Vadodara, Gujarat - 390005",22.309617831127074,73.19050851824585,generated_residential,Sayajigunj,390005
"90, Sayajigunj Street, Sayajigunj, Vadodara, Gujarat - 390005",22.29201300446664,73.18517310746576,generated_residential,Sayajigunj,390005
"283, Shree Apartment, Sayajigunj, Vadodara, Gujarat - 390005",22.3053371152057,73.18083856295354,generated_residential,Sayajigunj,390005
"135, Radha Heights, Sayajigunj, Vadodara, Gujarat - 390005",22.293344848403894,73.17995166817936,generated_residential,Sayajigunj,390005
"45, Sayajigunj Circle, Sayajigunj, Vadodara, Gujarat - 390005",22.292951762493242,73.18250153776216,generated_residential,Sayajigunj,390005
"121, Krishna Garden, Sayajigunj, Vadodara, Gujarat - 390005",22.29928933544411,73.18442787520713,generated_residential,Sayajigunj,390005
"2, Sayajigunj Lane, Sayajigunj, Vadodara, Gujarat - 390005",22.30822373077129,73.19239869800879,generated_residential,Sayajigunj,390005
"164, Ganga Complex, Sayajigunj, Vadodara, Gujarat - 390005",22.308362005583405,73.19929767557157,generated_residential,Sayajigunj,390005
"125, Sayajigunj Road, Sayajigunj, Vadodara, Gujarat - 390005",22.306387710056626,73.19483461213565,generated_residential,Sayajigunj,390005
"146, Krishna Residency, Sayajigunj, Vadodara, Gujarat - 390005",22.299106356835576,73.19946567750777,generated_residential,Sayajigunj,390005
"281, Radha Residency, Sayajigunj, Vadodara, Gujarat - 390005",22.291850760325257,73.18556073226877,generated_residential,Sayajigunj,390005
"239, Sayajigunj Circle, Sayajigunj, Vadodara, Gujarat - 390005",22.300767257251007,73.18704758331438,generated_residential,Sayajigunj,390005
"192, Sayajigunj Lane, Sayajigunj, Vadodara, Gujarat - 390005",22.29358042240272,73.1977800725889,generated_residential,Sayajigunj,390005
"234, Shree Complex, Sayajigunj, Vadodara, Gujarat - 390005",22.29650198399972,73.18401489119752,generated_residential,Sayajigunj,390005
"291, Sayajigunj Circle, Sayajigunj, Vadodara, Gujarat - 390005",22.307773815356967,73.19285681854008,generated_residential,Sayajigunj,390005
"266, Sayajigunj Street, Sayajigunj, Vadodara, Gujarat - 390005",22.306353722934762,73.19925681539169,generated_residential,Sayajigunj,390005
"131, Sayajigunj Circle, Sayajigunj, Vadodara, Gujarat - 390005",22.310425635742792,73.19915428787156,generated_residential,Sayajigunj,390005
"263, Sayajigunj Circle, Sayajigunj, Vadodara, Gujarat - 390005",22.292311686147915,73.18775638055416,generated_residential,Sayajigunj,390005
"172, Sayajigunj Road, Sayajigunj, Vadodara, Gujarat - 390005",22.29326146465391,73.19390302839028,generated_residential,Sayajigunj,390005
"54, Radha Heights, Sayajigunj, Vadodara, Gujarat - 390005",22.298448661900352,73.19490338792444,generated_residential,Sayajigunj,390005
"188, Sayajigunj Lane, Sayajigunj, Vadodara, Gujarat - 390005",22.299801496069264,73.18764683141234,generated_residential,Sayajigunj,390005
"163, Shree Society, Sayajigunj, Vadodara, Gujarat - 390005",22.296680978939573,73.19734418567471,generated_residential,Sayajigunj,390005
"53, Krishna Society, Sayajigunj, Vadodara, Gujarat - 390005",22.303886024036252,73.19404858228152,generated_residential,Sayajigunj,390005
"161, Sayajigunj Lane, Sayajigunj, Vadodara, Gujarat - 390005",22.305971410672488,73.19953339079761,generated_residential,Sayajigunj,390005
"205, Radha Heights, Sayajigunj, Vadodara, Gujarat - 390005",22.30662235857346,73.19848404697743,generated_residential,Sayajigunj,390005
"62, Radha Heights, Sayajigunj, Vadodara, Gujarat - 390005",22.301482282575616,73.19383143697702,generated_residential,Sayajigunj,390005
"11, Radha Heights, Sayajigunj, Vadodara, Gujarat - 390005",22.293652861341677,73.184743911066,generated_residential,Sayajigunj,390005
"10, Sayajigunj Cross, Sayajigunj, Vadodara, Gujarat - 390005",22.308727225250134,73.18390527742935,generated_residential,Sayajigunj,390005
"23, Radha Park, Sayajigunj, Vadodara, Gujarat - 390005",22.3010651124755,73.19346741176427,generated_residential,Sayajigunj,390005
"299, Shree Heights, Sayajigunj, Vadodara, Gujarat - 390005",22.304079983093455,73.18953386333727,generated_residential,Sayajigunj,390005
"221, Sayajigunj Street, Sayajigunj, Vadodara, Gujarat - 390005",22.29880975883049,73.18261804322832,generated_residential,Sayajigunj,390005
"66, Radha Complex, Sayajigunj, Vadodara, Gujarat - 390005",22.293234116943196,73.1912475401862,generated_residential,Sayajigunj,390005
"135, Sardar Apartment, Sayajigunj, Vadodara, Gujarat - 390005",22.293119816025524,73.18686946460483,generated_residential,Sayajigunj,390005
"82, Gotri Lane, Gotri, Vadodara, Gujarat - 390021",22.34856395609564,73.21532424149682,generated_residential,Gotri,390021
"94, Krishna Park, Gotri, Vadodara, Gujarat - 390021",22.33625976133738,73.19960590797824,generated_residential,Gotri,390021
"14, Ganga Garden, Gotri, Vadodara, Gujarat - 390021",22.336326749355187,73.2063829236725,generated_residential,Gotri,390021
"64, Gotri Street, Gotri, Vadodara, Gujarat - 390021",22.35127911921478,73.20120277686678,generated_residential,Gotri,390021
"207, Gotri Lane, Gotri, Vadodara, Gujarat - 390021",22.347439974768136,73.21533107939344,generated_residential,Gotri,390021
"26, Gotri Lane, Gotri, Vadodara, Gujarat - 390021",22.345386901663307,73.2132954129293,generated_residential,Gotri,390021
"152, Radha Heights, Gotri, Vadodara, Gujarat - 390021",22.34165218227119,73.21185187393495,generated_residential,Gotri,390021
"216, Krishna Park, Gotri, Vadodara, Gujarat - 390021",22.335011631278032,73.20399869198471,generated_residential,Gotri,390021
"177, Shree Residency, Gotri, Vadodara, Gujarat - 390021",22.350558555209812,73.19845996445153,generated_residential,Gotri,390021
"10, Gotri Street, Gotri, Vadodara, Gujarat - 390021",22.33358930429485,73.21389505013848,generated_residential,Gotri,390021
"283, Krishna Heights, Gotri, Vadodara, Gujarat - 390021",22.337332205843445,73.21369973675104,generated_residential,Gotri,390021
"273, Shree Garden, Gotri, Vadodara, Gujarat - 390021",22.35176147243057,73.21054124635951,generated_residential,Gotri,390021
"166, Ganga Heights, Gotri, Vadodara, Gujarat - 390021",22.341402071240175,73.20046428534609,generated_residential,Gotri,390021
"235, Ganga Society, Gotri, Vadodara, Gujarat - 390021",22.337080687133057,73.2034903603163,generated_residential,Gotri,390021
"255, New Society, Gotri, Vadodara, Gujarat - 390021",22.340295870726,73.20066480086479,generated_residential,Gotri,390021
"269, Gotri Circle, Gotri, Vadodara, Gujarat - 390021",22.346325802719324,73.20915244134497,generated_residential,Gotri,390021
"151, Gotri Cross, Gotri, Vadodara, Gujarat - 390021",22.338264497473336,73.20469059276947,generated_residential,Gotri,390021
"111, Gotri Road, Gotri, Vadodara, Gujarat - 390021",22.34490331738365,73.20392611287303,generated_residential,Gotri,390021
"150, Radha Complex, Gotri, Vadodara, Gujarat - 390021",22.334764641347128,73.21358948449101,generated_residential,Gotri,390021
"75, New Park, Gotri, Vadodara, Gujarat - 390021",22.336369652866665,73.21638795916061,generated_residential,Gotri,390021
"200, Radha Heights, Gotri, Vadodara, Gujarat - 390021",22.339304158691327,73.20342609936804,generated_residential,Gotri,390021
"216, Ganga Complex, Gotri, Vadodara, Gujarat - 390021",22.351668615638,73.2118409726475,generated_residential,Gotri,390021
"77, Ganga Garden, Gotri, Vadodara, Gujarat - 390021",22.35092562093333,73.20520684360389,generated_residential,Gotri,390021
"208, Sardar Park, Gotri, Vadodara, Gujarat - 390021",22.338436520706566,73.20284752711898,generated_residential,Gotri,390021
"15, Gotri Circle, Gotri, Vadodara, Gujarat - 390021",22.34944940989365,73.21526541356107,generated_residential,Gotri,390021
"163, Radha Park, Gotri, Vadodara, Gujarat - 390021",22.345105590176892,73.21641060466125,generated_residential,Gotri,390021
"225, Radha Heights, Gotri, Vadodara, Gujarat - 390021",22.3383784697465,73.20158018688355,generated_residential,Gotri,390021
"280, Gotri Road, Gotri, Vadodara, Gujarat - 390021",22.351814461299107,73.21001781387223,generated_residential,Gotri,390021
"47, New Garden, Gotri, Vadodara, Gujarat - 390021",22.348549944745688,73.21088510627071,generated_residential,Gotri,390021
"21, Gotri Street, Gotri, Vadodara, Gujarat - 390021",22.348687110506113,73.21231016018798,generated_residential,Gotri,390021
"204, Radha Complex, Gotri, Vadodara, Gujarat - 390021",22.347509725590363,73.1998688107054,generated_residential,Gotri,390021
"116, Krishna Park, Gotri, Vadodara, Gujarat - 390021",22.343665530038987,73.19947520968341,generated_residential,Gotri,390021
"250, Gotri Circle, Gotri, Vadodara, Gujarat - 390021",22.34693737120815,73.21529082904212,generated_residential,Gotri,390021
"272, New Complex, Gotri, Vadodara, Gujarat - 390021",22.345717285931205,73.21588289298998,generated_residential,Gotri,390021
"21, New Society, Gotri, Vadodara, Gujarat - 390021",22.338863579289328,73.21530955764699,generated_residential,Gotri,390021
"200, Sardar Park, Gotri, Vadodara, Gujarat - 390021",22.344397440746324,73.21456146811984,generated_residential,Gotri,390021
"264, Gotri Lane, Gotri, Vadodara, Gujarat - 390021",22.34940626765784,73.21731951854517,generated_residential,Gotri,390021
"238, Gotri Street, Gotri, Vadodara, Gujarat - 390021",22.33716682920369,73.21592176111149,generated_residential,Gotri,390021
"247, Gotri Street, Gotri, Vadodara, Gujarat - 390021",22.346733421365567,73.21623423853451,generated_residential,Gotri,390021
"15, Ganga Complex, Gotri, Vadodara, Gujarat - 390021",22.351404268817163,73.21837910822038,generated_residential,Gotri,390021
"187, Radha Apartment, Gotri, Vadodara, Gujarat - 390021",22.344441618949652,73.21075220517224,generated_residential,Gotri,390021
"120, Gotri Street, Gotri, Vadodara, Gujarat - 390021",22.351230366338495,73.20772976112266,generated_residential,Gotri,390021
"7, Krishna Apartment, Gotri, Vadodara, Gujarat - 390021",22.340595895532662,73.21236589823836,generated_residential,Gotri,390021
"273, Shree Heights, Gotri, Vadodara, Gujarat - 390021",22.343871666192204,73.21086847454855,generated_residential,Gotri,390021
"3, Gotri Road, Gotri, Vadodara, Gujarat - 390021",22.335815104114165,73.20483625862722,generated_residential,Gotri,390021
"55, Gotri Cross, Gotri, Vadodara, Gujarat - 390021",22.34205496464316,73.20798403177344,generated_residential,Gotri,390021
"161, Shree Residency, Gotri, Vadodara, Gujarat - 390021",22.35270645168066,73.20554296965469,generated_residential,Gotri,390021
"176, Shree Residency, Gotri, Vadodara, Gujarat - 390021",22.34525712642569,73.21606114565479,generated_residential,Gotri,390021
"88, Sardar Complex, Gotri, Vadodara, Gujarat - 390021",22.337815852077775,73.20752362953117,generated_residential,Gotri,390021
"142, Krishna Park, Gotri, Vadodara, Gujarat - 390021",22.35084413668308,73.20332826181476,generated_residential,Gotri,390021
"89, Shree Residency, Gotri, Vadodara, Gujarat - 390021",22.35055087919201,73.21331604089302,generated_residential,Gotri,390021
"189, Gotri Lane, Gotri, Vadodara, Gujarat - 390021",22.34556540789639,73.2025995042192,generated_residential,Gotri,390021
"31, Shree Park, Gotri, Vadodara, Gujarat - 390021",22.338589698643403,73.20191712273204,generated_residential,Gotri,390021
"126, Sardar Heights, Gotri, Vadodara, Gujarat - 390021",22.334193525454843,73.21088170257171,generated_residential,Gotri,390021
"74, Gotri Road, Gotri, Vadodara, Gujarat - 390021",22.352720266315625,73.21574652160643,generated_residential,Gotri,390021
"41, Gotri Cross, Gotri, Vadodara, Gujarat - 390021",22.337451589877332,73.21415834967348,generated_residential,Gotri,390021
"40, Ganga Park, Gotri, Vadodara, Gujarat - 390021",22.344291188064506,73.20988289760356,generated_residential,Gotri,390021
"249, Gotri Lane, Gotri, Vadodara, Gujarat - 390021",22.345656932601592,73.20297845463786,generated_residential,Gotri,390021
"283, Gotri Road, Gotri, Vadodara, Gujarat - 390021",22.35284298048112,73.20978673776013,generated_residential,Gotri,390021
"181, Gotri Road, Gotri, Vadodara, Gujarat - 390021",22.338404818088907,73.21550171886807,generated_residential,Gotri,390021
"53, Gotri Cross, Gotri, Vadodara, Gujarat - 390021",22.344799236016865,73.20888678763146,generated_residential,Gotri,390021
"150, Gotri Circle, Gotri, Vadodara, Gujarat - 390021",22.335363726665314,73.20395822028239,generated_residential,Gotri,390021
"257, Krishna Apartment, Gotri, Vadodara, Gujarat - 390021",22.34386148249265,73.2149580486137,generated_residential,Gotri,390021
"51, Gotri Street, Gotri, Vadodara, Gujarat - 390021",22.335190895593758,73.21199007393112,generated_residential,Gotri,390021
"197, Radha Residency, Gotri, Vadodara, Gujarat - 390021",22.352484088685053,73.21184904645814,generated_residential,Gotri,390021
"86, Gotri Street, Gotri, Vadodara, Gujarat - 390021",22.346306966588187,73.20781489524317,generated_residential,Gotri,390021
"281, New Garden, Gotri, Vadodara, Gujarat - 390021",22.336778520386403,73.21345267270046,generated_residential,Gotri,390021
"290, Sardar Apartment, Gotri, Vadodara, Gujarat - 390021",22.338731964008236,73.20535863876258,generated_residential,Gotri,390021
"7, Ganga Complex, Gotri, Vadodara, Gujarat - 390021",22.335300900414836,73.20756041697396,generated_residential,Gotri,390021
"144, Gotri Circle, Gotri, Vadodara, Gujarat - 390021",22.34775460741191,73.20299342669715,generated_residential,Gotri,390021
"262, Radha Society, Gotri, Vadodara, Gujarat - 390021",22.34607034504523,73.20349895996212,generated_residential,Gotri,390021
"158, Gotri Lane, Gotri, Vadodara, Gujarat - 390021",22.349240827344946,73.19992793516957,generated_residential,Gotri,390021
"60, Ganga Heights, Gotri, Vadodara, Gujarat - 390021",22.35012763723732,73.19877064619055,generated_residential,Gotri,390021
"138, Krishna Residency, Gotri, Vadodara, Gujarat - 390021",22.34723400270722,73.21448035199865,generated_residential,Gotri,390021
"25, Gotri Cross, Gotri, Vadodara, Gujarat - 390021",22.340960724399476,73.19912575167706,generated_residential,Gotri,390021
"54, Gotri Street, Gotri, Vadodara, Gujarat - 390021",22.34451759538252,73.20603899037394,generated_residential,Gotri,390021
"213, Shree Park, Gotri, Vadodara, Gujarat - 390021",22.351331022348013,73.20809889160151,generated_residential,Gotri,390021
"288, Ganga Apartment, Gotri, Vadodara, Gujarat - 390021",22.338197083716334,73.20371007676549,generated_residential,Gotri,390021
"214, Ganga Garden, Gotri, Vadodara, Gujarat - 390021",22.34829918595708,73.21304941387439,generated_residential,Gotri,390021
"77, Gotri Lane, Gotri, Vadodara, Gujarat - 390021",22.341880450341993,73.20355996674083,generated_residential,Gotri,390021
"34, New Complex, Manjalpur, Vadodara, Gujarat - 390011",22.27566369928632,73.21235369336368,generated_residential,Manjalpur,390011
"42, New Heights, Manjalpur, Vadodara, Gujarat - 390011",22.282540363662648,73.21467107541238,generated_residential,Manjalpur,390011
"192, Shree Society, Manjalpur, Vadodara, Gujarat - 390011",22.281248915611876,73.21128119736531,generated_residential,Manjalpur,390011
"264, Manjalpur Street, Manjalpur, Vadodara, Gujarat - 390011",22.277248858209727,73.20449206404056,generated_residential,Manjalpur,390011
"151, New Complex, Manjalpur, Vadodara, Gujarat - 390011",22.283313543441576,73.21406688829123,generated_residential,Manjalpur,390011
"97, Sardar Park, Manjalpur, Vadodara, Gujarat - 390011",22.271658939791006,73.20081803400855,generated_residential,Manjalpur,390011
"128, Sardar Society, Manjalpur, Vadodara, Gujarat - 390011",22.27712265039065,73.20044766276477,generated_residential,Manjalpur,390011
"218, Shree Complex, Manjalpur, Vadodara, Gujarat - 390011",22.271075611457597,73.21696973275718,generated_residential,Manjalpur,390011
"135, Manjalpur Circle, Manjalpur, Vadodara, Gujarat - 390011",22.269891282904503,73.20340721477815,generated_residential,Manjalpur,390011
"262, Manjalpur Lane, Manjalpur, Vadodara, Gujarat - 390011",22.28065346188703,73.19881329591786,generated_residential,Manjalpur,390011
"288, Manjalpur Road, Manjalpur, Vadodara, Gujarat - 390011",22.26725093428291,73.21479112049713,generated_residential,Manjalpur,390011
"67, Ganga Complex, Manjalpur, Vadodara, Gujarat - 390011",22.268458278108508,73.2039250938481,generated_residential,Manjalpur,390011
"146, Sardar Residency, Manjalpur, Vadodara, Gujarat - 390011",22.271510391474354,73.19963206277275,generated_residential,Manjalpur,390011
"285, New Park, Manjalpur, Vadodara, Gujarat - 390011",22.28271110630082,73.20987750528406,generated_residential,Manjalpur,390011
"189, Manjalpur Lane, Manjalpur, Vadodara, Gujarat - 390011",22.27965118521861,73.21734665528102,generated_residential,Manjalpur,390011
